{
"type": "FeatureCollection",
"crs": { "type": "name", "properties": { "name": "urn:ogc:def:crs:EPSG::4757" } },
"features": [
{ "type": "Feature", "properties": { "OBJECTID": 1, "ADDRESSPOS": "530207", "ADDRESS": "207 Hougang Street 21, Singapore 530207", "DESCRIPTIO": "Constituency Office", "NAME": "Paya Lebar Constituency Office", "X_ADDR": 33873.0812, "Y_ADDR": 37764.0518 }, "geometry": { "type": "Point", "coordinates": [ 103.886092077245152, 1.357798613192592 ] } },
{ "type": "Feature", "properties": { "OBJECTID": 2, "ADDRESSPOS": "555877", "ADDRESS": "10 Serangoon North Avenue 2, Singapore 555877", "DESCRIPTIO": "Constituency Office", "NAME": "Serangoon Constituency Office", "X_ADDR": 32519.2938, "Y_ADDR": 39119.26 }, "geometry": { "type": "Point", "coordinates": [ 103.873927613857788, 1.370054866020424 ] } },
{ "type": "Feature", "properties": { "OBJECTID": 3, "ADDRESSPOS": "545025", "ADDRESS": "2 Sengkang Square, #01-1, Singapore 545025", "DESCRIPTIO": "Constituency Office", "NAME": "Sengkang Central Constituency Office", "X_ADDR": 34742.5948, "Y_ADDR": 41632.7567 }, "geometry": { "type": "Point", "coordinates": [ 103.893906108165993, 1.39278559310478 ] } },
{ "type": "Feature", "properties": { "OBJECTID": 4, "ADDRESSPOS": "820602", "ADDRESS": "602 Punggol Central, #01-2, Singapore 820602", "DESCRIPTIO": "Constituency Office", "NAME": "Punggol Coast Constituency Office", "X_ADDR": 36231.8545, "Y_ADDR": 42793.6931 }, "geometry": { "type": "Point", "coordinates": [ 103.90728860117602, 1.403284291673685 ] } },
{ "type": "Feature", "properties": { "OBJECTID": 5, "ADDRESSPOS": "761431", "ADDRESS": "431A Yishun Avenue 1, Singapore 761431", "DESCRIPTIO": "Constituency Office", "NAME": "Gambas Constituency Office c\/o Nee Soon Spring CC", "X_ADDR": 29554.6217, "Y_ADDR": 44598.4304 }, "geometry": { "type": "Point", "coordinates": [ 103.847288241712405, 1.419606818626945 ] } },
{ "type": "Feature", "properties": { "OBJECTID": 6, "ADDRESSPOS": "469752", "ADDRESS": "200 Bedok North Avenue 1, Singapore 469752", "DESCRIPTIO": "Constituency Office", "NAME": "Kampong Chai Chee Constituency Office", "X_ADDR": 38446.0488, "Y_ADDR": 34408.4724 }, "geometry": { "type": "Point", "coordinates": [ 103.927182011864048, 1.327450730931938 ] } },
{ "type": "Feature", "properties": { "OBJECTID": 7, "ADDRESSPOS": "469299", "ADDRESS": "300 Bedok South Avenue 3, Singapore 469299", "DESCRIPTIO": "Constituency Office", "NAME": "Siglap Constituency Office", "X_ADDR": 40243.9166, "Y_ADDR": 33765.1251 }, "geometry": { "type": "Point", "coordinates": [ 103.943336558195767, 1.321631867166145 ] } },
{ "type": "Feature", "properties": { "OBJECTID": 8, "ADDRESSPOS": "556129", "ADDRESS": "50 Serangoon Avenue 2, #01-1, Singapore 556129", "DESCRIPTIO": "Constituency Office", "NAME": "Braddell Heights Constituency Office", "X_ADDR": 32123.1692, "Y_ADDR": 37079.9624 }, "geometry": { "type": "Point", "coordinates": [ 103.870367874801829, 1.351612246432051 ] } },
{ "type": "Feature", "properties": { "OBJECTID": 9, "ADDRESSPOS": "650386", "ADDRESS": "386 Bukit Batok West Avenue 5, #01-348, Singapore 650386", "DESCRIPTIO": "Constituency Office", "NAME": "Bukit Gombak Constituency Office", "X_ADDR": 19012.0831, "Y_ADDR": 38443.1575 }, "geometry": { "type": "Point", "coordinates": [ 103.752556045083296, 1.363939417356751 ] } },
{ "type": "Feature", "properties": { "OBJECTID": 10, "ADDRESSPOS": "129880", "ADDRESS": "220 Clementi Avenue 4, Singapore 129880", "DESCRIPTIO": "Constituency Office", "NAME": "Clementi Constituency Office", "X_ADDR": 20747.784, "Y_ADDR": 33453.4962 }, "geometry": { "type": "Point", "coordinates": [ 103.768153683050599, 1.318815197191985 ] } },
{ "type": "Feature", "properties": { "OBJECTID": 11, "ADDRESSPOS": "649520", "ADDRESS": "6 Jurong West Avenue 1, Singapore 649520", "DESCRIPTIO": "Constituency Office", "NAME": "Jurong Central Constituency Office", "X_ADDR": 15983.3629, "Y_ADDR": 36963.4074 }, "geometry": { "type": "Point", "coordinates": [ 103.725341561269445, 1.350556034417222 ] } },
{ "type": "Feature", "properties": { "OBJECTID": 12, "ADDRESSPOS": "649296", "ADDRESS": "8 Jurong West Street 52, Singapore 649296", "DESCRIPTIO": "Constituency Office", "NAME": "Jurong Spring Constituency Office", "X_ADDR": 15183.0604, "Y_ADDR": 36717.318 }, "geometry": { "type": "Point", "coordinates": [ 103.718150455673239, 1.348330161688611 ] } },
{ "type": "Feature", "properties": { "OBJECTID": 13, "ADDRESSPOS": "438748", "ADDRESS": "99 Haig Road, Singapore 438748", "DESCRIPTIO": "Constituency Office", "NAME": "Geylang Serai Constituency Office", "X_ADDR": 35180.1997, "Y_ADDR": 32589.8616 }, "geometry": { "type": "Point", "coordinates": [ 103.897836173236783, 1.311004813496469 ] } },
{ "type": "Feature", "properties": { "OBJECTID": 14, "ADDRESSPOS": "417408", "ADDRESS": "5 Lengkong Tiga, Singapore 417408", "DESCRIPTIO": "Constituency Office", "NAME": "Kembangan-Chai Chee Constituency Office", "X_ADDR": 36834.2114, "Y_ADDR": 33933.4379 }, "geometry": { "type": "Point", "coordinates": [ 103.912698649157534, 1.323155202488101 ] } },
{ "type": "Feature", "properties": { "OBJECTID": 15, "ADDRESSPOS": "449282", "ADDRESS": "278 Marine Parade Road, Singapore 449282", "DESCRIPTIO": "Constituency Office", "NAME": "Marine Parade Constituency Office", "X_ADDR": 36483.3338, "Y_ADDR": 31906.9638 }, "geometry": { "type": "Point", "coordinates": [ 103.909545274513121, 1.304828600940916 ] } },
{ "type": "Feature", "properties": { "OBJECTID": 16, "ADDRESSPOS": "379131", "ADDRESS": "400 Paya Lebar Way, Singapore 379131", "DESCRIPTIO": "Constituency Office", "NAME": "MacPherson Constituency Office", "X_ADDR": 33693.8869, "Y_ADDR": 33975.5833 }, "geometry": { "type": "Point", "coordinates": [ 103.884481187125317, 1.323537097339309 ] } },
{ "type": "Feature", "properties": { "OBJECTID": 17, "ADDRESSPOS": "456441", "ADDRESS": "6 Palm Road, Singapore 456441", "DESCRIPTIO": "Constituency Office", "NAME": "Joo Chiat Constituency Office", "X_ADDR": 38829.1108, "Y_ADDR": 32828.1743 }, "geometry": { "type": "Point", "coordinates": [ 103.930623474431499, 1.313158961244298 ] } },
{ "type": "Feature", "properties": { "OBJECTID": 18, "ADDRESSPOS": "399479", "ADDRESS": "35 Jalan Satu, Singapore 399479", "DESCRIPTIO": "Constituency Office", "NAME": "Mountbatten Constituency Office", "X_ADDR": 33954.9687, "Y_ADDR": 32528.5056 }, "geometry": { "type": "Point", "coordinates": [ 103.886826866534633, 1.310450193672056 ] } },
{ "type": "Feature", "properties": { "OBJECTID": 19, "ADDRESSPOS": "688892", "ADDRESS": "35 Teck Whye Avenue, Singapore 688892", "DESCRIPTIO": "Constituency Office", "NAME": "Chua Chu Kang Constituency Office", "X_ADDR": 18939.5702, "Y_ADDR": 40346.8049 }, "geometry": { "type": "Point", "coordinates": [ 103.751903885582877, 1.38115528550871 ] } },
{ "type": "Feature", "properties": { "OBJECTID": 20, "ADDRESSPOS": "649040", "ADDRESS": "60 Jurong West Street 91, Singapore 649040", "DESCRIPTIO": "Constituency Office", "NAME": "Nanyang Constituency Office", "X_ADDR": 12308.3987, "Y_ADDR": 36057.7623 }, "geometry": { "type": "Point", "coordinates": [ 103.692320233714597, 1.342364025685383 ] } },
{ "type": "Feature", "properties": { "OBJECTID": 21, "ADDRESSPOS": "659959", "ADDRESS": "21 Bukit Batok Central, Singapore 659959", "DESCRIPTIO": "Constituency Office", "NAME": "Bukit Batok Constituency Office", "X_ADDR": 18450.9532, "Y_ADDR": 36922.924 }, "geometry": { "type": "Point", "coordinates": [ 103.74751440033242, 1.350190806952601 ] } },
{ "type": "Feature", "properties": { "OBJECTID": 22, "ADDRESSPOS": "618495", "ADDRESS": "1 Yung Sheng Road, Singapore 618495", "DESCRIPTIO": "Constituency Office", "NAME": "Taman Jurong Constituency Office", "X_ADDR": 15569.8294, "Y_ADDR": 35277.2401 }, "geometry": { "type": "Point", "coordinates": [ 103.72162639956457, 1.335306797215926 ] } },
{ "type": "Feature", "properties": { "OBJECTID": 23, "ADDRESSPOS": "98915", "ADDRESS": "1 Telok Blangah Crescent, Singapore 98915", "DESCRIPTIO": "Constituency Office", "NAME": "Radin Mas Constituency Office (CC being upgraded till 1st quarter of 2018)", "X_ADDR": 26490.2724, "Y_ADDR": 28711.4944 }, "geometry": { "type": "Point", "coordinates": [ 103.819753124687708, 1.275931023828097 ] } },
{ "type": "Feature", "properties": { "OBJECTID": 24, "ADDRESSPOS": "521866", "ADDRESS": "866A Tampines Street 83, #02-1, Singapore 521866", "DESCRIPTIO": "Constituency Office", "NAME": "Tampines Central Constituency Office", "X_ADDR": 39239.7774, "Y_ADDR": 37501.4021 }, "geometry": { "type": "Point", "coordinates": [ 103.934315234757136, 1.355421762679495 ] } },
{ "type": "Feature", "properties": { "OBJECTID": 25, "ADDRESSPOS": "319642", "ADDRESS": "200 Toa Payoh Lorong 2, Singapore 319642", "DESCRIPTIO": "Constituency Office", "NAME": "Toa Payoh West-Balestier Constituency Office", "X_ADDR": 29298.7249, "Y_ADDR": 35287.6691 }, "geometry": { "type": "Point", "coordinates": [ 103.844988372418371, 1.33540363961358 ] } },
{ "type": "Feature", "properties": { "OBJECTID": 26, "ADDRESSPOS": "738526", "ADDRESS": "1 Woodlands Street 81, #03-2, Singapore 738526", "DESCRIPTIO": "Constituency Office", "NAME": "Woodlands Constituency Office", "X_ADDR": 22982.9371, "Y_ADDR": 46823.6335 }, "geometry": { "type": "Point", "coordinates": [ 103.788235403918193, 1.439730344045637 ] } },
{ "type": "Feature", "properties": { "OBJECTID": 27, "ADDRESSPOS": "757632", "ADDRESS": "2 Sembawang Crescent, Singapore 757632", "DESCRIPTIO": "Constituency Office", "NAME": "Canberra Constituency Office", "X_ADDR": 26455.0449, "Y_ADDR": 47413.8098 }, "geometry": { "type": "Point", "coordinates": [ 103.8194356258184, 1.445068090423747 ] } },
{ "type": "Feature", "properties": { "OBJECTID": 28, "ADDRESSPOS": "538840", "ADDRESS": "35 Hougang Avenue 3, Singapore 538840", "DESCRIPTIO": "Constituency Office", "NAME": "Hougang Constituency Office (CC being upgraded till 2nd Quarter 2018)", "X_ADDR": 34598.5261, "Y_ADDR": 38512.5368 }, "geometry": { "type": "Point", "coordinates": [ 103.892610838996035, 1.364567488171607 ] } },
{ "type": "Feature", "properties": { "OBJECTID": 29, "ADDRESSPOS": "569897", "ADDRESS": "216 Ang Mo Kio Avenue 4, Singapore 569897", "DESCRIPTIO": "Constituency Office", "NAME": "Kebun Baru Constituency Office", "X_ADDR": 28477.8521, "Y_ADDR": 39445.7089 }, "geometry": { "type": "Point", "coordinates": [ 103.837612422692885, 1.373007494540969 ] } },
{ "type": "Feature", "properties": { "OBJECTID": 30, "ADDRESSPOS": "88995", "ADDRESS": "28A Kreta Ayer Road, Singapore 88995", "DESCRIPTIO": "Constituency Office", "NAME": "Kreta Ayer-Kim Seng Constituency Office", "X_ADDR": 29078.8935, "Y_ADDR": 29293.2887 }, "geometry": { "type": "Point", "coordinates": [ 103.843012851820902, 1.281192586164812 ] } },
{ "type": "Feature", "properties": { "OBJECTID": 31, "ADDRESSPOS": "689286", "ADDRESS": "20 Choa Chu Kang Street 52, #05-1, Singapore 689286", "DESCRIPTIO": "Constituency Office", "NAME": "Limbang Constituency Office c\/o Yew Tee CO", "X_ADDR": 18141.0236, "Y_ADDR": 41868.5998 }, "geometry": { "type": "Point", "coordinates": [ 103.744727845280181, 1.394917577235035 ] } },
{ "type": "Feature", "properties": { "OBJECTID": 32, "ADDRESSPOS": "758528", "ADDRESS": "2125 Sembawang Road, Singapore 758528", "DESCRIPTIO": "Constituency Office", "NAME": "Sembawang Constituency Office", "X_ADDR": 27495.2901, "Y_ADDR": 48145.0861 }, "geometry": { "type": "Point", "coordinates": [ 103.828783247125799, 1.451681525818314 ] } },
{ "type": "Feature", "properties": { "OBJECTID": 33, "ADDRESSPOS": "529705", "ADDRESS": "5 Tampines Avenue 3, Singapore 529705", "DESCRIPTIO": "Constituency Office", "NAME": "Tampines West Constituency Office", "X_ADDR": 39386.5062, "Y_ADDR": 36763.7621 }, "geometry": { "type": "Point", "coordinates": [ 103.935633407996349, 1.348750764893 ] } },
{ "type": "Feature", "properties": { "OBJECTID": 34, "ADDRESSPOS": "569734", "ADDRESS": "861 Ang Mo Kio Avenue 10, Singapore 569734", "DESCRIPTIO": "Constituency Office", "NAME": "Teck Ghee Constituency Office", "X_ADDR": 30252.0856, "Y_ADDR": 38350.7968 }, "geometry": { "type": "Point", "coordinates": [ 103.853555096788895, 1.363105418802124 ] } },
{ "type": "Feature", "properties": { "OBJECTID": 35, "ADDRESSPOS": "108943", "ADDRESS": "450 Telok Blangah Street 31, Singapore 108943", "DESCRIPTIO": "Constituency Office", "NAME": "Telok Blangah Constituency Office", "X_ADDR": 25169.8422, "Y_ADDR": 28591.3388 }, "geometry": { "type": "Point", "coordinates": [ 103.807888588560786, 1.274844288214293 ] } },
{ "type": "Feature", "properties": { "OBJECTID": 36, "ADDRESSPOS": "730353", "ADDRESS": "353 Woodlands Avenue 1, #01-753, Singapore 730353", "DESCRIPTIO": "Constituency Office", "NAME": "Woodgrove Constituency Office", "X_ADDR": 22623.631, "Y_ADDR": 45943.5382 }, "geometry": { "type": "Point", "coordinates": [ 103.785006858060683, 1.431771017247756 ] } },
{ "type": "Feature", "properties": { "OBJECTID": 37, "ADDRESSPOS": "689286", "ADDRESS": "20 Choa Chu Kang Street 52, #01-1, Singapore 689286", "DESCRIPTIO": "Constituency Office", "NAME": "Yew Tee Constituency Office", "X_ADDR": 18141.0236, "Y_ADDR": 41868.5998 }, "geometry": { "type": "Point", "coordinates": [ 103.744727845280181, 1.394917577235035 ] } },
{ "type": "Feature", "properties": { "OBJECTID": 38, "ADDRESSPOS": "609958", "ADDRESS": "90 Boon Lay Way, Singapore 609958", "DESCRIPTIO": "Constituency Office", "NAME": "Yuhua Constituency Office", "X_ADDR": 17288.108, "Y_ADDR": 35793.1175 }, "geometry": { "type": "Point", "coordinates": [ 103.737065917060406, 1.339972860024281 ] } },
{ "type": "Feature", "properties": { "OBJECTID": 39, "ADDRESSPOS": "659440", "ADDRESS": "30 Bukit Batok Street 31, Singapore 659440", "DESCRIPTIO": "Constituency Office", "NAME": "Hong Kah North Constituency Office", "X_ADDR": 18667.1597, "Y_ADDR": 37903.5042 }, "geometry": { "type": "Point", "coordinates": [ 103.749456845979822, 1.359058883873634 ] } },
{ "type": "Feature", "properties": { "OBJECTID": 40, "ADDRESSPOS": "648346", "ADDRESS": "60 Jurong West Central 3, #01-1, Singapore 648346", "DESCRIPTIO": "Constituency Office", "NAME": "Pioneer Constituency Office", "X_ADDR": 13658.601, "Y_ADDR": 35848.2083 }, "geometry": { "type": "Point", "coordinates": [ 103.70445267991272, 1.340469571359864 ] } },
{ "type": "Feature", "properties": { "OBJECTID": 41, "ADDRESSPOS": "569205", "ADDRESS": "6 Ang Mo Kio Street 53, Singapore 569205", "DESCRIPTIO": "Constituency Office", "NAME": "Cheng San-Seletar Constituency Office", "X_ADDR": 29808.5828, "Y_ADDR": 39310.0342 }, "geometry": { "type": "Point", "coordinates": [ 103.849569981647832, 1.371780450360686 ] } },
{ "type": "Feature", "properties": { "OBJECTID": 42, "ADDRESSPOS": "569163", "ADDRESS": "50 Ang Mo Kio Street 61, Singapore 569163", "DESCRIPTIO": "Constituency Office", "NAME": "Yio Chu Kang Constituency Office", "X_ADDR": 28902.4897, "Y_ADDR": 40386.6776 }, "geometry": { "type": "Point", "coordinates": [ 103.841428124035417, 1.381517268864583 ] } },
{ "type": "Feature", "properties": { "OBJECTID": 43, "ADDRESSPOS": "649882", "ADDRESS": "10 Boon Lay Place, Singapore 649882", "DESCRIPTIO": "Constituency Office", "NAME": "Boon Lay Constituency Office", "X_ADDR": 14433.9116, "Y_ADDR": 36722.3803 }, "geometry": { "type": "Point", "coordinates": [ 103.711418897447473, 1.348375613374003 ] } },
{ "type": "Feature", "properties": { "OBJECTID": 44, "ADDRESSPOS": "659841", "ADDRESS": "23 Bukit Batok East Avenue 4, Singapore 659841", "DESCRIPTIO": "Constituency Office", "NAME": "Bukit Batok East Constituency Office", "X_ADDR": 19639.6732, "Y_ADDR": 36789.8165 }, "geometry": { "type": "Point", "coordinates": [ 103.758195826822799, 1.348987386902712 ] } },
{ "type": "Feature", "properties": { "OBJECTID": 45, "ADDRESSPOS": "529915", "ADDRESS": "10 Simei Street 2, Singapore 529915", "DESCRIPTIO": "Constituency Office", "NAME": "Changi Simei Constituency Office", "X_ADDR": 41556.3101, "Y_ADDR": 36324.203 }, "geometry": { "type": "Point", "coordinates": [ 103.955130217832249, 1.344774654384673 ] } },
{ "type": "Feature", "properties": { "OBJECTID": 46, "ADDRESSPOS": "479220", "ADDRESS": "180 Bedok Reservoir Road, Singapore 479220", "DESCRIPTIO": "Constituency Office", "NAME": "Eunos Constituency Office", "X_ADDR": 37106.271, "Y_ADDR": 34972.5833 }, "geometry": { "type": "Point", "coordinates": [ 103.91514355701311, 1.332552775172809 ] } },
{ "type": "Feature", "properties": { "OBJECTID": 47, "ADDRESSPOS": "129605", "ADDRESS": "2 Clementi West Street 2, Singapore 129605", "DESCRIPTIO": "Constituency Office", "NAME": "West Coast Constituency Office (CC being upgraded till 1st Quarter 2017)", "X_ADDR": 20378.0723, "Y_ADDR": 31665.5504 }, "geometry": { "type": "Point", "coordinates": [ 103.764832072980354, 1.302645568835323 ] } },
{ "type": "Feature", "properties": { "OBJECTID": 48, "ADDRESSPOS": "609335", "ADDRESS": "150 Pandan Gardens, Singapore 609335", "DESCRIPTIO": "Constituency Office", "NAME": "Ayer Rajah Constituency Office", "X_ADDR": 18462.6315, "Y_ADDR": 33671.0427 }, "geometry": { "type": "Point", "coordinates": [ 103.747620355898178, 1.32078198322304 ] } },
{ "type": "Feature", "properties": { "OBJECTID": 49, "ADDRESSPOS": "544965", "ADDRESS": "59 Anchorvale Road, Singapore 544965", "DESCRIPTIO": "Constituency Office", "NAME": "Sengkang West Constituency Office @ Anchorvale CC", "X_ADDR": 33936.8206, "Y_ADDR": 42112.8901 }, "geometry": { "type": "Point", "coordinates": [ 103.886665691006243, 1.397127920447041 ] } },
{ "type": "Feature", "properties": { "OBJECTID": 50, "ADDRESSPOS": "570233", "ADDRESS": "233 Bishan Street 22, #01-126, Singapore 570233", "DESCRIPTIO": "Constituency Office", "NAME": "Bishan North Constituency Office", "X_ADDR": 29365.9687, "Y_ADDR": 37849.9505 }, "geometry": { "type": "Point", "coordinates": [ 103.845592711652046, 1.358575997530971 ] } },
{ "type": "Feature", "properties": { "OBJECTID": 51, "ADDRESSPOS": "579799", "ADDRESS": "51 Bishan Street 13, Singapore 579799", "DESCRIPTIO": "Constituency Office", "NAME": "Bishan East-Thomson Constituency Office (CC being upgraded till 2nd Quarter 2017)", "X_ADDR": 29913.1321, "Y_ADDR": 36847.6613 }, "geometry": { "type": "Point", "coordinates": [ 103.850509272991275, 1.349511621937353 ] } },
{ "type": "Feature", "properties": { "OBJECTID": 52, "ADDRESSPOS": "689687", "ADDRESS": "2 Choa Chu Kang Loop, #01-1, Singapore 689687", "DESCRIPTIO": "Constituency Office", "NAME": "Keat Hong Constituency Office", "X_ADDR": 18165.6306, "Y_ADDR": 40671.9879 }, "geometry": { "type": "Point", "coordinates": [ 103.744949360757488, 1.384095869681167 ] } },
{ "type": "Feature", "properties": { "OBJECTID": 53, "ADDRESSPOS": "519498", "ADDRESS": "93 Pasir Ris Drive 3, Singapore 519498", "DESCRIPTIO": "Constituency Office", "NAME": "Pasir Ris West Constituency Office", "X_ADDR": 40147.9088, "Y_ADDR": 40045.5186 }, "geometry": { "type": "Point", "coordinates": [ 103.942476410887451, 1.378429446035801 ] } },
{ "type": "Feature", "properties": { "OBJECTID": 54, "ADDRESSPOS": "677738", "ADDRESS": "1 Segar Road, Singapore 677738", "DESCRIPTIO": "Constituency Office", "NAME": "Zhenghua Constituency Office", "X_ADDR": 21122.7076, "Y_ADDR": 40971.6588 }, "geometry": { "type": "Point", "coordinates": [ 103.771520841889298, 1.38680683100555 ] } },
{ "type": "Feature", "properties": { "OBJECTID": 55, "ADDRESSPOS": "319194", "ADDRESS": "93 Toa Payoh Central, Singapore 319194", "DESCRIPTIO": "Constituency Office", "NAME": "Toa Payoh Central Constituency Office", "X_ADDR": 29879.3143, "Y_ADDR": 35235.7211 }, "geometry": { "type": "Point", "coordinates": [ 103.850205299807357, 1.334933808972527 ] } },
{ "type": "Feature", "properties": { "OBJECTID": 56, "ADDRESSPOS": "199581", "ADDRESS": "385 Beach Road, Singapore 199581", "DESCRIPTIO": "Constituency Office", "NAME": "Kampong Glam Constituency Office", "X_ADDR": 31369.8088, "Y_ADDR": 31682.0156 }, "geometry": { "type": "Point", "coordinates": [ 103.863597860964148, 1.302795228342276 ] } },
{ "type": "Feature", "properties": { "OBJECTID": 57, "ADDRESSPOS": "339717", "ADDRESS": "3188 Geylang Bahru, Singapore 339717", "DESCRIPTIO": "Constituency Office", "NAME": "Kolam Ayer Constituency Office", "X_ADDR": 32048.1179, "Y_ADDR": 34043.804 }, "geometry": { "type": "Point", "coordinates": [ 103.869693087032786, 1.324154323626123 ] } },
{ "type": "Feature", "properties": { "OBJECTID": 58, "ADDRESSPOS": "270036", "ADDRESS": "36 Holland Drive, #01-1, Singapore 270036", "DESCRIPTIO": "Constituency Office", "NAME": "Buona Vista Constituency Office", "X_ADDR": 23462.5592, "Y_ADDR": 32388.261 }, "geometry": { "type": "Point", "coordinates": [ 103.792547486780109, 1.309182111948197 ] } },
{ "type": "Feature", "properties": { "OBJECTID": 59, "ADDRESSPOS": "89774", "ADDRESS": "101 Cantonment Road, Singapore 89774", "DESCRIPTIO": "Constituency Office", "NAME": "Tanjong Pagar-Tiong Bahru Constituency Office @ Tanjong Pagar CC", "X_ADDR": 28919.8987, "Y_ADDR": 28737.5841 }, "geometry": { "type": "Point", "coordinates": [ 103.841584207338357, 1.276166992688865 ] } },
{ "type": "Feature", "properties": { "OBJECTID": 60, "ADDRESSPOS": "469627", "ADDRESS": "670 Bedok North Street 3, Singapore 469627", "DESCRIPTIO": "Constituency Office", "NAME": "Kaki Bukit Constituency Office", "X_ADDR": 38408.9182, "Y_ADDR": 35061.6842 }, "geometry": { "type": "Point", "coordinates": [ 103.926848595940299, 1.333358151892011 ] } },
{ "type": "Feature", "properties": { "OBJECTID": 61, "ADDRESSPOS": "519457", "ADDRESS": "1 Pasir Ris Drive 4, #01-8, Singapore 519457", "DESCRIPTIO": "Constituency Office", "NAME": "Pasir Ris East Constituency Office", "X_ADDR": 42008.8742, "Y_ADDR": 38957.2832 }, "geometry": { "type": "Point", "coordinates": [ 103.959198003862596, 1.36858702853809 ] } },
{ "type": "Feature", "properties": { "OBJECTID": 62, "ADDRESSPOS": "828815", "ADDRESS": "80 Punggol Field, #01-1, Singapore 828815", "DESCRIPTIO": "Constituency Office", "NAME": "Punggol North Constituency Office", "X_ADDR": 36919.1418, "Y_ADDR": 41723.565 }, "geometry": { "type": "Point", "coordinates": [ 103.913464114023611, 1.393606242503647 ] } },
{ "type": "Feature", "properties": { "OBJECTID": 63, "ADDRESSPOS": "529453", "ADDRESS": "13 Tampines Street 11, Singapore 529453", "DESCRIPTIO": "Constituency Office", "NAME": "Tampines Changkat Constituency Office", "X_ADDR": 40731.0919, "Y_ADDR": 36444.4494 }, "geometry": { "type": "Point", "coordinates": [ 103.94771519447994, 1.345862478001655 ] } },
{ "type": "Feature", "properties": { "OBJECTID": 64, "ADDRESSPOS": "529341", "ADDRESS": "10 Tampines Street 23, Singapore 529341", "DESCRIPTIO": "Constituency Office", "NAME": "Tampines East Constituency Office", "X_ADDR": 41499.917, "Y_ADDR": 37258.1331 }, "geometry": { "type": "Point", "coordinates": [ 103.954623910741617, 1.353220792477135 ] } },
{ "type": "Feature", "properties": { "OBJECTID": 65, "ADDRESSPOS": "529204", "ADDRESS": "2 Tampines Street 41, Singapore 529204", "DESCRIPTIO": "Constituency Office", "NAME": "Tampines North Constituency Office", "X_ADDR": 40612.6535, "Y_ADDR": 37706.2711 }, "geometry": { "type": "Point", "coordinates": [ 103.946651484544418, 1.357273972984349 ] } },
{ "type": "Feature", "properties": { "OBJECTID": 66, "ADDRESSPOS": "540193", "ADDRESS": "193 Rivervale Drive, #01-787, Singapore 540193", "DESCRIPTIO": "Constituency Office", "NAME": "Punggol East Constituency Office c\/o Rivervale Community Centre", "X_ADDR": 35618.2994, "Y_ADDR": 41725.965 }, "geometry": { "type": "Point", "coordinates": [ 103.901775024974242, 1.393628318187593 ] } },
{ "type": "Feature", "properties": { "OBJECTID": 67, "ADDRESSPOS": "596569", "ADDRESS": "20 Toh Yi Drive, Singapore 596569", "DESCRIPTIO": "Constituency Office", "NAME": "Bukit Timah Constituency Office", "X_ADDR": 21132.4561, "Y_ADDR": 35851.3773 }, "geometry": { "type": "Point", "coordinates": [ 103.771609619146886, 1.340500861604805 ] } },
{ "type": "Feature", "properties": { "OBJECTID": 68, "ADDRESSPOS": "679910", "ADDRESS": "101 Bukit Panjang Road, Singapore 679910", "DESCRIPTIO": "Constituency Office", "NAME": "Cashew Constituency Office", "X_ADDR": 20359.1207, "Y_ADDR": 40394.4741 }, "geometry": { "type": "Point", "coordinates": [ 103.764659583271794, 1.381586793706407 ] } },
{ "type": "Feature", "properties": { "OBJECTID": 69, "ADDRESSPOS": "279621", "ADDRESS": "170 Ghim Moh Road, #01-1, Singapore 279621", "DESCRIPTIO": "Constituency Office", "NAME": "Ulu Pandan Constituency Office", "X_ADDR": 23091.2651, "Y_ADDR": 32700.896 }, "geometry": { "type": "Point", "coordinates": [ 103.78921118150781, 1.312009414920611 ] } },
{ "type": "Feature", "properties": { "OBJECTID": 70, "ADDRESSPOS": "739069", "ADDRESS": "120 Woodlands Avenue 1, Singapore 739069", "DESCRIPTIO": "Constituency Office", "NAME": "Admiralty Constituency Office", "X_ADDR": 23428.6486, "Y_ADDR": 45470.4569 }, "geometry": { "type": "Point", "coordinates": [ 103.792240770525638, 1.4274927841677 ] } },
{ "type": "Feature", "properties": { "OBJECTID": 71, "ADDRESSPOS": "738581", "ADDRESS": "1 Woodlands Street 31, Singapore 738581", "DESCRIPTIO": "Constituency Office", "NAME": "Marsiling Constituency Office", "X_ADDR": 21489.0744, "Y_ADDR": 45695.7435 }, "geometry": { "type": "Point", "coordinates": [ 103.774811861357023, 1.429529814673528 ] } },
{ "type": "Feature", "properties": { "OBJECTID": 72, "ADDRESSPOS": "768677", "ADDRESS": "21 Yishun Ring Road, Singapore 768677", "DESCRIPTIO": "Constituency Office", "NAME": "Chong Pang Constituency Office", "X_ADDR": 27545.5454, "Y_ADDR": 45839.6918 }, "geometry": { "type": "Point", "coordinates": [ 103.829234878510789, 1.430832376814265 ] } },
{ "type": "Feature", "properties": { "OBJECTID": 73, "ADDRESSPOS": "760749", "ADDRESS": "749 Yishun Street 72, #01-138, Singapore 760749", "DESCRIPTIO": "Constituency Office", "NAME": "Nee Soon Central Constituency Office", "X_ADDR": 28088.463, "Y_ADDR": 45568.0713 }, "geometry": { "type": "Point", "coordinates": [ 103.834113500447614, 1.428375943727144 ] } },
{ "type": "Feature", "properties": { "OBJECTID": 74, "ADDRESSPOS": "768893", "ADDRESS": "1 Yishun Avenue 9, Singapore 768893", "DESCRIPTIO": "Constituency Office", "NAME": "Nee Soon East Constituency Office", "X_ADDR": 28575.2885, "Y_ADDR": 45860.5342 }, "geometry": { "type": "Point", "coordinates": [ 103.838488085341851, 1.43102086669792 ] } },
{ "type": "Feature", "properties": { "OBJECTID": 75, "ADDRESSPOS": "768455", "ADDRESS": "30 Yishun Street 81, Singapore 768455", "DESCRIPTIO": "Constituency Office", "NAME": "Nee Soon South Constituency Office", "X_ADDR": 28152.9691, "Y_ADDR": 44108.3738 }, "geometry": { "type": "Point", "coordinates": [ 103.834693139789209, 1.415174965517183 ] } },
{ "type": "Feature", "properties": { "OBJECTID": 76, "ADDRESSPOS": "678295", "ADDRESS": "8 Pending Road, Singapore 678295", "DESCRIPTIO": "Constituency Office", "NAME": "Bukit Panjang Constituency Office", "X_ADDR": 21015.6157, "Y_ADDR": 39826.538 }, "geometry": { "type": "Point", "coordinates": [ 103.770558811401045, 1.376450749246251 ] } },
{ "type": "Feature", "properties": { "OBJECTID": 77, "ADDRESSPOS": "358361", "ADDRESS": "6 Potong Pasir Avenue 2, Singapore 358361", "DESCRIPTIO": "Constituency Office", "NAME": "Potong Pasir Constituency Office", "X_ADDR": 31752.4913, "Y_ADDR": 34970.5927 }, "geometry": { "type": "Point", "coordinates": [ 103.867036838441251, 1.332535907926024 ] } },
{ "type": "Feature", "properties": { "OBJECTID": 78, "ADDRESSPOS": "821308", "ADDRESS": "308A Punggol Walk, #01-402, Singapore 821308", "DESCRIPTIO": "Constituency Office", "NAME": "Punggol West Constituency Office", "X_ADDR": 35521.5702, "Y_ADDR": 43287.9379 }, "geometry": { "type": "Point", "coordinates": [ 103.900906240747588, 1.407754254940693 ] } },
{ "type": "Feature", "properties": { "OBJECTID": 79, "ADDRESSPOS": "327737", "ADDRESS": "300 Whampoa Drive, Singapore 327737", "DESCRIPTIO": "Constituency Office", "NAME": "Whampoa Constituency Office", "X_ADDR": 30633.1847, "Y_ADDR": 34097.4463 }, "geometry": { "type": "Point", "coordinates": [ 103.856979160655555, 1.324639600414654 ] } },
{ "type": "Feature", "properties": { "OBJECTID": 80, "ADDRESSPOS": "467352", "ADDRESS": "850 New Upper Changi Road, Singapore 467352", "DESCRIPTIO": "Constituency Office", "NAME": "Bedok Constituency Office", "X_ADDR": 39434.1333, "Y_ADDR": 34055.7015 }, "geometry": { "type": "Point", "coordinates": [ 103.936060349000527, 1.324260045785238 ] } },
{ "type": "Feature", "properties": { "OBJECTID": 81, "ADDRESSPOS": "469644", "ADDRESS": "20 Bedok North Street 2, Singapore 469644", "DESCRIPTIO": "Constituency Office", "NAME": "Fengshan Constituency Office", "X_ADDR": 39495.6774, "Y_ADDR": 34768.6458 }, "geometry": { "type": "Point", "coordinates": [ 103.936613621494928, 1.33070762890842 ] } },
{ "type": "Feature", "properties": { "OBJECTID": 82, "ADDRESSPOS": "538776", "ADDRESS": "51 Hougang Avenue 9, #01-1, Singapore 538776", "DESCRIPTIO": "Constituency Office", "NAME": "Ang Mo Kio-Hougang Constituency Office", "X_ADDR": 33517.1524, "Y_ADDR": 39682.56 }, "geometry": { "type": "Point", "coordinates": [ 103.882894178408549, 1.375148977353539 ] } },
{ "type": "Feature", "properties": { "OBJECTID": 83, "ADDRESSPOS": "550535", "ADDRESS": "535 Serangoon North Avenue 4, #01-179, Singapore 550535", "DESCRIPTIO": "Constituency Office", "NAME": "Jalan Kayu Constituency Office", "X_ADDR": 32515.2106, "Y_ADDR": 39511.274 }, "geometry": { "type": "Point", "coordinates": [ 103.873890984032315, 1.373600099404688 ] } },
{ "type": "Feature", "properties": { "OBJECTID": 84, "ADDRESSPOS": "530458", "ADDRESS": "458 Hougang Avenue 10, #01-405, Singapore 530458", "DESCRIPTIO": "Constituency Office", "NAME": "Sengkang South Constituency Office", "X_ADDR": 35003.8049, "Y_ADDR": 39968.4833 }, "geometry": { "type": "Point", "coordinates": [ 103.896252888842085, 1.377734447144121 ] } },
{ "type": "Feature", "properties": { "OBJECTID": 85, "ADDRESSPOS": "319380", "ADDRESS": "160 Lorong 6 Toa Payoh, Singapore 319380", "DESCRIPTIO": "Constituency Office", "NAME": "Toa Payoh East-Novena Constituency Office", "X_ADDR": 30379.5543, "Y_ADDR": 35384.0155 }, "geometry": { "type": "Point", "coordinates": [ 103.854700255319642, 1.336274896586279 ] } },
{ "type": "Feature", "properties": { "OBJECTID": 86, "ADDRESSPOS": "219458", "ADDRESS": "21 Gloucester Road, Singapore 219458", "DESCRIPTIO": "Constituency Office", "NAME": "Moulmein-Cairnhill Constituency Office", "X_ADDR": 30009.3788, "Y_ADDR": 32816.88 }, "geometry": { "type": "Point", "coordinates": [ 103.851373845983375, 1.313058658386184 ] } },
{ "type": "Feature", "properties": { "OBJECTID": 87, "ADDRESSPOS": "149732", "ADDRESS": "365 Commonwealth Avenue, Singapore 149732", "DESCRIPTIO": "Constituency Office", "NAME": "Queenstown Constituency Office", "X_ADDR": 24437.1862, "Y_ADDR": 31278.9741 }, "geometry": { "type": "Point", "coordinates": [ 103.801305105863136, 1.299150241537014 ] } },
{ "type": "Feature", "properties": { "OBJECTID": 88, "ADDRESSPOS": "159682", "ADDRESS": "500 Bukit Merah View, Singapore 159682", "DESCRIPTIO": "Constituency Office", "NAME": "Henderson-Dawson Constituency Office", "X_ADDR": 26886.3859, "Y_ADDR": 29826.1646 }, "geometry": { "type": "Point", "coordinates": [ 103.823312311059979, 1.286011727475793 ] } },
{ "type": "Feature", "properties": { "OBJECTID": 89, "ADDRESSPOS": "538808", "ADDRESS": "3 Hougang Avenue 6, Singapore 538808", "DESCRIPTIO": "Constituency Office", "NAME": "Bedok Reservoir-Punggol Constituency Office", "X_ADDR": 34509.9696, "Y_ADDR": 39597.4227 }, "geometry": { "type": "Point", "coordinates": [ 103.891815336495469, 1.374378823291362 ] } }
]
}
