{
"type": "FeatureCollection",
"crs": { "type": "name", "properties": { "name": "urn:ogc:def:crs:EPSG::4757" } },
"features": [
{ "type": "Feature", "properties": { "OBJECTID": 1, "POSTAL_COD": "732569", "ADDRESS": "Blk 569B Champions Way #01-380 S(732569)", "DESCRIPTIO": "Family Services", "HYPERLINK": "http:\/\/www.fycs.org", "NAME": "Fei Yue Family Service Centre (Champions Way)", "X_ADDR": 23116.7218, "Y_ADDR": 45769.6884 }, "geometry": { "type": "Point", "coordinates": [ 103.789437769743571, 1.430198872703285 ] } },
{ "type": "Feature", "properties": { "OBJECTID": 2, "POSTAL_COD": "680280", "ADDRESS": "Blk 280 Choa Chu Kang Ave 3 #01-360", "DESCRIPTIO": "Family Services", "HYPERLINK": "http:\/\/www.fycs.org", "NAME": "Fei Yue Family Service Centre (Choa Chu Kang)", "X_ADDR": 17941.966, "Y_ADDR": 40311.0819 }, "geometry": { "type": "Point", "coordinates": [ 103.742939690904208, 1.380831892917174 ] } },
{ "type": "Feature", "properties": { "OBJECTID": 3, "POSTAL_COD": "680604", "ADDRESS": "Blk 604 Choa Chu Kang St 62 #01-53", "DESCRIPTIO": "Family Services", "HYPERLINK": "http:\/\/www.fycs.org", "NAME": "Fei Yue Family Service Centre (Yew Tee)", "X_ADDR": 18130.2274, "Y_ADDR": 42229.4947 }, "geometry": { "type": "Point", "coordinates": [ 103.744630709666154, 1.398181374376429 ] } },
{ "type": "Feature", "properties": { "OBJECTID": 4, "POSTAL_COD": "619773", "ADDRESS": "301A Corporation Drive", "DESCRIPTIO": "Family Services", "HYPERLINK": null, "NAME": "Fei Yue Family Services at SSO@Taman Jurong", "X_ADDR": 15631.0513, "Y_ADDR": 35239.3183 }, "geometry": { "type": "Point", "coordinates": [ 103.722176527995103, 1.334963871644176 ] } },
{ "type": "Feature", "properties": { "OBJECTID": 5, "POSTAL_COD": "530237", "ADDRESS": "Blk 237 Hougang St 21 #01-406", "DESCRIPTIO": "Family Services", "HYPERLINK": "http:\/\/www.shenghong.org.sg\/", "NAME": "Hougang Sheng Hong Family Service Centre", "X_ADDR": 34160.3535, "Y_ADDR": 37620.398 }, "geometry": { "type": "Point", "coordinates": [ 103.88867337659002, 1.356499401927433 ] } },
{ "type": "Feature", "properties": { "OBJECTID": 6, "POSTAL_COD": "200002", "ADDRESS": "Blk 2 Kitchener Road #03-89", "DESCRIPTIO": "Family Services", "HYPERLINK": null, "NAME": "Kampong Kapor Family Service Centre", "X_ADDR": 30877.3633, "Y_ADDR": 32240.2133 }, "geometry": { "type": "Point", "coordinates": [ 103.85917306277338, 1.307843419810634 ] } },
{ "type": "Feature", "properties": { "OBJECTID": 7, "POSTAL_COD": "050004", "ADDRESS": "Blk 4 Sago Lane #03-101", "DESCRIPTIO": "Family Services", "HYPERLINK": null, "NAME": "Kreta Ayer Family Services at SSO@Kreta Ayer", "X_ADDR": 29067.2428, "Y_ADDR": 29360.5225 }, "geometry": { "type": "Point", "coordinates": [ 103.842908168065321, 1.281800624559342 ] } },
{ "type": "Feature", "properties": { "OBJECTID": 8, "POSTAL_COD": "600302", "ADDRESS": "Blk 302 Jurong East St 32 #01-22", "DESCRIPTIO": "Family Services", "HYPERLINK": "http:\/\/www.lakeside.org.sg", "NAME": "Lakeside Family Centre (Jurong East)", "X_ADDR": 16996.6442, "Y_ADDR": 36308.6187 }, "geometry": { "type": "Point", "coordinates": [ 103.734446758348653, 1.344634757876314 ] } },
{ "type": "Feature", "properties": { "OBJECTID": 9, "POSTAL_COD": "640516", "ADDRESS": "Blk 516 Jurong West St 52 #01-73", "DESCRIPTIO": "Family Services", "HYPERLINK": "http:\/\/www.lakeside.org.sg", "NAME": "Lakeside Family Centre (Jurong West)", "X_ADDR": 15450.9253, "Y_ADDR": 36404.7638 }, "geometry": { "type": "Point", "coordinates": [ 103.720557513238759, 1.345503651495557 ] } },
{ "type": "Feature", "properties": { "OBJECTID": 10, "POSTAL_COD": "440053", "ADDRESS": "Blk 53 Marine Terrace #01-227", "DESCRIPTIO": "Family Services", "HYPERLINK": "http:\/\/www.mpfsc.org.sg", "NAME": "Marine Parade Family Service Centre", "X_ADDR": 37233.2616, "Y_ADDR": 31941.6136 }, "geometry": { "type": "Point", "coordinates": [ 103.916283730806242, 1.305141746685086 ] } },
{ "type": "Feature", "properties": { "OBJECTID": 11, "POSTAL_COD": "510256", "ADDRESS": "Blk 256 Pasir Ris St 21 #01-289", "DESCRIPTIO": "Family Services", "HYPERLINK": "http:\/\/www.goodnews.org.sg\/prfsc\/", "NAME": "Pasir Ris Family Service Centre", "X_ADDR": 42512.9095, "Y_ADDR": 38839.8288 }, "geometry": { "type": "Point", "coordinates": [ 103.963727045503234, 1.367524571273973 ] } },
{ "type": "Feature", "properties": { "OBJECTID": 12, "POSTAL_COD": "461041", "ADDRESS": "Blk 41 Chai Chee Street #01-16", "DESCRIPTIO": "Family Services", "HYPERLINK": "http:\/\/web.ppis.sg\/", "NAME": "PPIS (Persatuan Pemudi Islam Singapura) Family Service Centre East", "X_ADDR": 38327.7942, "Y_ADDR": 34398.6076 }, "geometry": { "type": "Point", "coordinates": [ 103.926119427549281, 1.327361558546014 ] } },
{ "type": "Feature", "properties": { "OBJECTID": 13, "POSTAL_COD": "642183", "ADDRESS": "Blk 183B Boon Lay Avenue #01-716", "DESCRIPTIO": "Family Services", "HYPERLINK": null, "NAME": "THKFSC @ Jurong", "X_ADDR": 14210.4949, "Y_ADDR": 36691.537 }, "geometry": { "type": "Point", "coordinates": [ 103.709411377666854, 1.348096576190472 ] } },
{ "type": "Feature", "properties": { "OBJECTID": 14, "POSTAL_COD": "200002", "ADDRESS": "Blk 2 Kitchener Road #03-89", "DESCRIPTIO": "Family Services", "HYPERLINK": null, "NAME": "Whampoa Family Service Centre", "X_ADDR": 30877.3633, "Y_ADDR": 32240.2133 }, "geometry": { "type": "Point", "coordinates": [ 103.85917306277338, 1.307843419810634 ] } },
{ "type": "Feature", "properties": { "OBJECTID": 15, "POSTAL_COD": "650301", "ADDRESS": "Blk 301 Bukit Batok St 31 #01-01", "DESCRIPTIO": "Family Services", "HYPERLINK": "http:\/\/web.ppis.sg\/", "NAME": "PPIS (Persatuan Pemudi Islam Singapura) Family Service Centre West", "X_ADDR": 18591.1878, "Y_ADDR": 37650.3495 }, "geometry": { "type": "Point", "coordinates": [ 103.748774267440524, 1.356769421505322 ] } },
{ "type": "Feature", "properties": { "OBJECTID": 16, "POSTAL_COD": "820616", "ADDRESS": "Blk 616 Punggol Drive #01-01", "DESCRIPTIO": "Family Services", "HYPERLINK": "http:\/\/www.amkfsc.org.sg", "NAME": "Punggol Family Service Centre", "X_ADDR": 36727.6926, "Y_ADDR": 42662.6349 }, "geometry": { "type": "Point", "coordinates": [ 103.911744075415868, 1.402098903549678 ] } },
{ "type": "Feature", "properties": { "OBJECTID": 17, "POSTAL_COD": "570187", "ADDRESS": "Blk 187 Bishan St 13 #01-475", "DESCRIPTIO": "Family Services", "HYPERLINK": "http:\/\/www.reach.org.sg", "NAME": "REACH Family Service Centre", "X_ADDR": 30028.3635, "Y_ADDR": 36852.5034 }, "geometry": { "type": "Point", "coordinates": [ 103.851544700717554, 1.349555404586468 ] } },
{ "type": "Feature", "properties": { "OBJECTID": 18, "POSTAL_COD": "120346", "ADDRESS": "Blk 346 Clementi Ave 5 #01-32", "DESCRIPTIO": "Family Services", "HYPERLINK": "http:\/\/rotarysingaporefoundation.org", "NAME": "Rotary Family Service Centre", "X_ADDR": 20949.0071, "Y_ADDR": 33265.8335 }, "geometry": { "type": "Point", "coordinates": [ 103.769961818415084, 1.3171180909647 ] } },
{ "type": "Feature", "properties": { "OBJECTID": 19, "POSTAL_COD": "520946", "ADDRESS": "Blk 946 Tampines Avenue 4 #01-338", "DESCRIPTIO": "Family Services", "HYPERLINK": "http:\/\/www.sblvisionfsc.org\/", "NAME": "SBL Vision Family Service Centre", "X_ADDR": 39871.8733, "Y_ADDR": 37054.8022 }, "geometry": { "type": "Point", "coordinates": [ 103.939994842489924, 1.351382634149134 ] } },
{ "type": "Feature", "properties": { "OBJECTID": 20, "POSTAL_COD": "750326", "ADDRESS": "Blk 326 Sembawang Crescent #01-52", "DESCRIPTIO": "Family Services", "HYPERLINK": "http:\/\/sfsc.org.sg", "NAME": "Sembawang Family Service Centre", "X_ADDR": 26419.8497, "Y_ADDR": 47397.0901 }, "geometry": { "type": "Point", "coordinates": [ 103.819119362097695, 1.444916882465703 ] } },
{ "type": "Feature", "properties": { "OBJECTID": 21, "POSTAL_COD": "544223", "ADDRESS": "Blk 223D Compassvale Walk #01-673", "DESCRIPTIO": "Family Services", "HYPERLINK": "http:\/\/www.amkfsc.org.sg", "NAME": "Sengkang Family Service Centre", "X_ADDR": 35127.8213, "Y_ADDR": 41222.4498 }, "geometry": { "type": "Point", "coordinates": [ 103.897367569560103, 1.389074834946454 ] } },
{ "type": "Feature", "properties": { "OBJECTID": 22, "POSTAL_COD": "550238", "ADDRESS": "Blk 238 Serangoon Ave 2 #01-47", "DESCRIPTIO": "Family Services", "HYPERLINK": "http:\/\/www.chkmps.org.sg\/serangoonfsc.html", "NAME": "Serangoon Moral Family Service Centre", "X_ADDR": 31965.3529, "Y_ADDR": 37293.7412 }, "geometry": { "type": "Point", "coordinates": [ 103.868949823414994, 1.353545606798378 ] } },
{ "type": "Feature", "properties": { "OBJECTID": 23, "POSTAL_COD": "760107", "ADDRESS": "Blk 107 Yishun Ring Road #01-233", "DESCRIPTIO": "Family Services", "HYPERLINK": "http:\/\/www.childrensociety.org.sg\/", "NAME": "Singapore Children's Society Family Service Centre (Yishun)", "X_ADDR": 27354.728, "Y_ADDR": 45992.9158 }, "geometry": { "type": "Point", "coordinates": [ 103.827520202995061, 1.432218076387518 ] } },
{ "type": "Feature", "properties": { "OBJECTID": 24, "POSTAL_COD": "209943", "ADDRESS": "No 1. Beatty Road", "DESCRIPTIO": "Family Services", "HYPERLINK": "http:\/\/www.sinda.org.sg\/", "NAME": "Singapore Indian Development Association (SINDA) Family Service Centre", "X_ADDR": 30782.0845, "Y_ADDR": 32953.1433 }, "geometry": { "type": "Point", "coordinates": [ 103.858317002113083, 1.314290915334806 ] } },
{ "type": "Feature", "properties": { "OBJECTID": 25, "POSTAL_COD": "160005", "ADDRESS": "Blk 5 Delta Ave #01-09", "DESCRIPTIO": "Family Services", "HYPERLINK": null, "NAME": "South Central Community Family Service Centre", "X_ADDR": 27363.6511, "Y_ADDR": 30513.909 }, "geometry": { "type": "Point", "coordinates": [ 103.827600715392265, 1.292231458679702 ] } },
{ "type": "Feature", "properties": { "OBJECTID": 26, "POSTAL_COD": "520470", "ADDRESS": "Blk 470 Tampines Street 44 #01-194", "DESCRIPTIO": "Family Services", "HYPERLINK": "http:\/\/www.tampinesfsc.mws.org.sg\/", "NAME": "Tampines Family Service Centre", "X_ADDR": 41481.4567, "Y_ADDR": 38100.6275 }, "geometry": { "type": "Point", "coordinates": [ 103.954458413377012, 1.36084000296598 ] } },
{ "type": "Feature", "properties": { "OBJECTID": 27, "POSTAL_COD": "460554", "ADDRESS": "Blk 554 Bedok North Street 3 #01-241", "DESCRIPTIO": "Family Services", "HYPERLINK": "http:\/\/www.thkmc.org.sg\/thk-family-service-centre-bedok-north\/", "NAME": "THKFSC @ Bedok North", "X_ADDR": 38556.2169, "Y_ADDR": 34980.859 }, "geometry": { "type": "Point", "coordinates": [ 103.928172128891731, 1.332627148387406 ] } },
{ "type": "Feature", "properties": { "OBJECTID": 28, "POSTAL_COD": "670139", "ADDRESS": "Blk 139 Petir Road #01-448", "DESCRIPTIO": "Family Services", "HYPERLINK": "http:\/\/www.thkmc.org.sg\/thk-family-service-centre-bukit-panjang\/", "NAME": "THKFSC @ Bukit Panjang", "X_ADDR": 20914.1715, "Y_ADDR": 39702.8504 }, "geometry": { "type": "Point", "coordinates": [ 103.769647291599625, 1.375332139196382 ] } },
{ "type": "Feature", "properties": { "OBJECTID": 29, "POSTAL_COD": "370091", "ADDRESS": "Blk 91 Paya Lebar Way #01-3023", "DESCRIPTIO": "Family Services", "HYPERLINK": "http:\/\/www.thkmc.org.sg\/thk-family-service-centre-macpherson\/", "NAME": "THKFSC @ MacPherson", "X_ADDR": 33945.0421, "Y_ADDR": 33880.9443 }, "geometry": { "type": "Point", "coordinates": [ 103.886737931489876, 1.322681168198877 ] } },
{ "type": "Feature", "properties": { "OBJECTID": 30, "POSTAL_COD": "164018", "ADDRESS": "Blk 18 Jalan Membina #04-01", "DESCRIPTIO": "Family Services", "HYPERLINK": "http:\/\/www.thkmc.org.sg\/thk-family-service-centre-tanjong-pagar\/", "NAME": "THKFSC @ Tanjong Pagar", "X_ADDR": 27272.7852, "Y_ADDR": 29788.6335 }, "geometry": { "type": "Point", "coordinates": [ 103.826784264526182, 1.285672319817831 ] } },
{ "type": "Feature", "properties": { "OBJECTID": 31, "POSTAL_COD": "460411", "ADDRESS": "Blk 411 Bedok North Ave 2 #01-106", "DESCRIPTIO": "Family Services", "HYPERLINK": "http:\/\/www.transfamilyservices.org.sg\/bedok.html", "NAME": "TRANS Family Service Centre (Bedok)", "X_ADDR": 38938.9625, "Y_ADDR": 34500.2798 }, "geometry": { "type": "Point", "coordinates": [ 103.931611138196502, 1.328280831089417 ] } },
{ "type": "Feature", "properties": { "OBJECTID": 32, "POSTAL_COD": "591501", "ADDRESS": "Blk 1 Toh Yi Drive #01-143", "DESCRIPTIO": "Family Services", "HYPERLINK": "http:\/\/www.transfamilyservices.org.sg\/bt.html", "NAME": "TRANS Family Service Centre (Bukit Timah)", "X_ADDR": 21463.7293, "Y_ADDR": 35749.7173 }, "geometry": { "type": "Point", "coordinates": [ 103.77458632728144, 1.339581558812387 ] } },
{ "type": "Feature", "properties": { "OBJECTID": 33, "POSTAL_COD": "350142", "ADDRESS": "Blk 142 Potong Pasir Ave 3 #01-224", "DESCRIPTIO": "Family Services", "HYPERLINK": null, "NAME": "Viriya FSC", "X_ADDR": 31738.5192, "Y_ADDR": 35035.1984 }, "geometry": { "type": "Point", "coordinates": [ 103.866911299141393, 1.333120180607284 ] } },
{ "type": "Feature", "properties": { "OBJECTID": 34, "POSTAL_COD": "640646", "ADDRESS": "Blk 646 Jurong West Street 61 #01-142", "DESCRIPTIO": "Family Services", "HYPERLINK": "http:\/\/www.viriya.org.sg\/WHFSC\/", "NAME": "Whispering Hearts Family Service Centre", "X_ADDR": 12836.199, "Y_ADDR": 35733.8696 }, "geometry": { "type": "Point", "coordinates": [ 103.697062984426083, 1.339435133993471 ] } },
{ "type": "Feature", "properties": { "OBJECTID": 35, "POSTAL_COD": "090027", "ADDRESS": "Blk 27 Telok Blangah Way #01-1018", "DESCRIPTIO": "Family Services", "HYPERLINK": null, "NAME": "@27 Family Service Centre", "X_ADDR": 26681.8011, "Y_ADDR": 28549.7931 }, "geometry": { "type": "Point", "coordinates": [ 103.821474087674318, 1.274468663398095 ] } },
{ "type": "Feature", "properties": { "OBJECTID": 36, "POSTAL_COD": "560230", "ADDRESS": "Blk 230 Ang Mo Kio Ave 3 #01-1264", "DESCRIPTIO": "Family Services", "HYPERLINK": "http:\/\/www.amkfsc.org.sg\/", "NAME": "Ang Mo Kio Family Service Centre", "X_ADDR": 28509.4567, "Y_ADDR": 38986.4857 }, "geometry": { "type": "Point", "coordinates": [ 103.837896404772806, 1.368854443444632 ] } },
{ "type": "Feature", "properties": { "OBJECTID": 37, "POSTAL_COD": "560643", "ADDRESS": "Blk 643 Ang Mo Kio Ave 5 #01-3001", "DESCRIPTIO": "Family Services", "HYPERLINK": "http:\/\/www.amkfsc.org.sg\/", "NAME": "Ang Mo Kio Family Service Centre", "X_ADDR": 28805.5668, "Y_ADDR": 39943.1603 }, "geometry": { "type": "Point", "coordinates": [ 103.840557186356278, 1.377506260883705 ] } },
{ "type": "Feature", "properties": { "OBJECTID": 38, "POSTAL_COD": "321107", "ADDRESS": "Blk 107 Towner Road #01-356", "DESCRIPTIO": "Family Services", "HYPERLINK": "http:\/\/www.awwa.org.sg", "NAME": "AWWA Family Service Centre", "X_ADDR": 30987.3853, "Y_ADDR": 33503.7446 }, "geometry": { "type": "Point", "coordinates": [ 103.860161784790478, 1.319270340126838 ] } },
{ "type": "Feature", "properties": { "OBJECTID": 39, "POSTAL_COD": "730718", "ADDRESS": "Blk 718 Woodlands Ave 6 #01-658 S(730718)", "DESCRIPTIO": "Family Services", "HYPERLINK": "http:\/\/www.carecorner.org.sg\/", "NAME": "Care Corner Family Service Centre (Admiralty)", "X_ADDR": 24415.2947, "Y_ADDR": 47029.8493 }, "geometry": { "type": "Point", "coordinates": [ 103.801106497210441, 1.441595504283966 ] } },
{ "type": "Feature", "properties": { "OBJECTID": 40, "POSTAL_COD": "141088", "ADDRESS": "Blk 88 Tanglin Halt Road #05-01", "DESCRIPTIO": "Family Services", "HYPERLINK": "http:\/\/www.carecorner.org.sg\/", "NAME": "Care Corner Family Service Centre (Queenstown)", "X_ADDR": 24071.7822, "Y_ADDR": 31598.2958 }, "geometry": { "type": "Point", "coordinates": [ 103.798021747973308, 1.302038029100648 ] } },
{ "type": "Feature", "properties": { "OBJECTID": 41, "POSTAL_COD": "522299", "ADDRESS": "Blk 299B Tampines Street 22", "DESCRIPTIO": "Family Services", "HYPERLINK": "http:\/\/www.carecorner.org.sg\/fsctampines.html", "NAME": "Care Corner Family Service Centre (Tampines)", "X_ADDR": 41444.3184, "Y_ADDR": 36846.0348 }, "geometry": { "type": "Point", "coordinates": [ 103.954124138635308, 1.349493954569727 ] } },
{ "type": "Feature", "properties": { "OBJECTID": 42, "POSTAL_COD": "310158", "ADDRESS": "Blk 158 Lor 1 Toa Payoh #01-1522", "DESCRIPTIO": "Family Services", "HYPERLINK": "http:\/\/www.carecorner.org.sg\/", "NAME": "Care Corner Family Service Centre (Toa Payoh)", "X_ADDR": 29306.1023, "Y_ADDR": 34852.2673 }, "geometry": { "type": "Point", "coordinates": [ 103.845054643089014, 1.331466018905277 ] } },
{ "type": "Feature", "properties": { "OBJECTID": 43, "POSTAL_COD": "730345", "ADDRESS": "Blk 345 Woodlands St 32 #01-198 S(730345)", "DESCRIPTIO": "Family Services", "HYPERLINK": "http:\/\/www.carecorner.org.sg\/", "NAME": "Care Corner Family Service Centre (Woodlands)", "X_ADDR": 22091.7001, "Y_ADDR": 46005.7515 }, "geometry": { "type": "Point", "coordinates": [ 103.780226948066868, 1.432333546078823 ] } },
{ "type": "Feature", "properties": { "OBJECTID": 44, "POSTAL_COD": "560445", "ADDRESS": "Blk 445 Ang Mo Kio Ave 10 #01-1647", "DESCRIPTIO": "Family Services", "HYPERLINK": "http:\/\/www.amkfsc.org.sg", "NAME": "Cheng San Family Service Centre", "X_ADDR": 30478.0707, "Y_ADDR": 38782.8924 }, "geometry": { "type": "Point", "coordinates": [ 103.855585761158082, 1.367013118934135 ] } },
{ "type": "Feature", "properties": { "OBJECTID": 45, "POSTAL_COD": "560323", "ADDRESS": "Blk 323 Ang Mo Kio Avenue 3 #01-1960", "DESCRIPTIO": "Family Services", "HYPERLINK": "http:\/\/www.amkfsc.org.sg", "NAME": "Cheng San Family Service Centre", "X_ADDR": 29589.2549, "Y_ADDR": 38879.8519 }, "geometry": { "type": "Point", "coordinates": [ 103.847599140710656, 1.367890047126544 ] } },
{ "type": "Feature", "properties": { "OBJECTID": 46, "POSTAL_COD": "530613", "ADDRESS": "Blk 613 Hougang Ave 8 #01-432", "DESCRIPTIO": "Family Services", "HYPERLINK": "http:\/\/www.covenantfsc.mws.org.sg\/", "NAME": "Covenant Family Service Centre", "X_ADDR": 33728.0077, "Y_ADDR": 39056.6195 }, "geometry": { "type": "Point", "coordinates": [ 103.884788745013296, 1.36948815799135 ] } },
{ "type": "Feature", "properties": { "OBJECTID": 47, "POSTAL_COD": "760855", "ADDRESS": "Blk 855 Yishun Ring Road #01-3539", "DESCRIPTIO": "Family Services", "HYPERLINK": null, "NAME": "Daybreak Family Service Centre", "X_ADDR": 28390.1355, "Y_ADDR": 44313.5559 }, "geometry": { "type": "Point", "coordinates": [ 103.836824291166963, 1.417030557080525 ] } },
{ "type": "Feature", "properties": { "OBJECTID": 48, "POSTAL_COD": "650185", "ADDRESS": "Blk 185 Bukit Batok West Ave 6 #01-187", "DESCRIPTIO": "Family Services", "HYPERLINK": "http:\/\/www.fycs.org", "NAME": "Fei Yue Family Service Centre (Bukit Batok)", "X_ADDR": 18162.6551, "Y_ADDR": 36579.1315 }, "geometry": { "type": "Point", "coordinates": [ 103.744923976093148, 1.347081580131089 ] } }
]
}
