{
"type": "FeatureCollection",
"crs": { "type": "name", "properties": { "name": "urn:ogc:def:crs:EPSG::4757" } },
"features": [
{ "type": "Feature", "properties": { "OBJECTID": 1, "ADDRESSPOS": "90027", "ADDRESS": "27 Telok Blangah Way, #01-1018, Singapore 90027", "DESCRIPTIO": "Voluntary Welfare Organisations", "NAME": "@27 Family Service Centre - SPMF", "HYPERLINK": null, "X_ADDR": 26681.8011, "Y_ADDR": 28549.7931 }, "geometry": { "type": "Point", "coordinates": [ 103.821474087674318, 1.274468663398095 ] } },
{ "type": "Feature", "properties": { "OBJECTID": 2, "ADDRESSPOS": "149544", "ADDRESS": "1 Commonwealth Lane, #07-9, Singapore 149544", "DESCRIPTIO": "Voluntary Welfare Organisations", "NAME": "365 Cancer Prevention Society - Counselling Service", "HYPERLINK": "http:\/\/www.365cps.org.sg", "X_ADDR": 23890.138, "Y_ADDR": 31898.2499 }, "geometry": { "type": "Point", "coordinates": [ 103.796389552558566, 1.304750684227803 ] } },
{ "type": "Feature", "properties": { "OBJECTID": 3, "ADDRESSPOS": "149544", "ADDRESS": "1 Commonwealth Lane, #07-9, Singapore 149544", "DESCRIPTIO": "Voluntary Welfare Organisations", "NAME": "365 Cancer Prevention Society - Financial Assistance", "HYPERLINK": "http:\/\/www.365cps.org.sg", "X_ADDR": 23890.138, "Y_ADDR": 31898.2499 }, "geometry": { "type": "Point", "coordinates": [ 103.796389552558566, 1.304750684227803 ] } },
{ "type": "Feature", "properties": { "OBJECTID": 4, "ADDRESSPOS": "149544", "ADDRESS": "1 Commonwealth Lane, #07-9, Singapore 149544", "DESCRIPTIO": "Voluntary Welfare Organisations", "NAME": "365 Cancer Prevention Society - Public Education", "HYPERLINK": "http:\/\/www.365cps.org.sg", "X_ADDR": 23890.138, "Y_ADDR": 31898.2499 }, "geometry": { "type": "Point", "coordinates": [ 103.796389552558566, 1.304750684227803 ] } },
{ "type": "Feature", "properties": { "OBJECTID": 5, "ADDRESSPOS": "149544", "ADDRESS": "1 Commonwealth Lane, #07-9, Singapore 149544", "DESCRIPTIO": "Voluntary Welfare Organisations", "NAME": "365 Cancer Prevention Society - Support Group", "HYPERLINK": "http:\/\/www.365cps.org.sg", "X_ADDR": 23890.138, "Y_ADDR": 31898.2499 }, "geometry": { "type": "Point", "coordinates": [ 103.796389552558566, 1.304750684227803 ] } },
{ "type": "Feature", "properties": { "OBJECTID": 6, "ADDRESSPOS": "650106", "ADDRESS": "106 Bukit Batok Central, #01-217, Singapore 650106", "DESCRIPTIO": "Voluntary Welfare Organisations", "NAME": "A Kids' Nurture and Interact Club", "HYPERLINK": "http:\/\/www.mcyc.sg", "X_ADDR": 18414.6767, "Y_ADDR": 36705.2578 }, "geometry": { "type": "Point", "coordinates": [ 103.747188503598537, 1.348222302780478 ] } },
{ "type": "Feature", "properties": { "OBJECTID": 7, "ADDRESSPOS": "141088", "ADDRESS": "88 Tanglin Halt Road, #05-1, Singapore 141088", "DESCRIPTIO": "Voluntary Welfare Organisations", "NAME": "A woman A mother", "HYPERLINK": "http:\/\/www.carecorner.org.sg", "X_ADDR": 24071.7822, "Y_ADDR": 31598.2958 }, "geometry": { "type": "Point", "coordinates": [ 103.798021747973308, 1.302038029100648 ] } },
{ "type": "Feature", "properties": { "OBJECTID": 8, "ADDRESSPOS": "417902", "ADDRESS": "10 Kaki Bukit Avenue 5, Singapore 417902", "DESCRIPTIO": "Voluntary Welfare Organisations", "NAME": "Acacia Welfare Home", "HYPERLINK": null, "X_ADDR": 36965.8273, "Y_ADDR": 35546.1772 }, "geometry": { "type": "Point", "coordinates": [ 103.913881759992961, 1.337740191735168 ] } },
{ "type": "Feature", "properties": { "OBJECTID": 9, "ADDRESSPOS": "209943", "ADDRESS": "1 Beatty Road, #04-402, Singapore 209943", "DESCRIPTIO": "Voluntary Welfare Organisations", "NAME": "Achievement Awards Ceremony", "HYPERLINK": "http:\/\/www.siet-trust.org.sg", "X_ADDR": 30782.0845, "Y_ADDR": 32953.1433 }, "geometry": { "type": "Point", "coordinates": [ 103.858317002113083, 1.314290915334806 ] } },
{ "type": "Feature", "properties": { "OBJECTID": 10, "ADDRESSPOS": "199824", "ADDRESS": "134 Arab Street, Singapore 199824", "DESCRIPTIO": "Voluntary Welfare Organisations", "NAME": "ACOSS - MCP", "HYPERLINK": null, "X_ADDR": 30769.0365, "Y_ADDR": 31649.8521 }, "geometry": { "type": "Point", "coordinates": [ 103.858199642357761, 1.302504412433465 ] } },
{ "type": "Feature", "properties": { "OBJECTID": 11, "ADDRESSPOS": "208628", "ADDRESS": "9 Kelantan Lane, #03-1, Singapore 208628", "DESCRIPTIO": "Voluntary Welfare Organisations", "NAME": "Action For Aids (Singapore)", "HYPERLINK": "http:\/\/www.afa.org.sg", "X_ADDR": 30571.206, "Y_ADDR": 32076.5756 }, "geometry": { "type": "Point", "coordinates": [ 103.856422079842716, 1.306363565235685 ] } },
{ "type": "Feature", "properties": { "OBJECTID": 12, "ADDRESSPOS": "208628", "ADDRESS": "9 Kelantan Lane, #03-1, Singapore 208628", "DESCRIPTIO": "Voluntary Welfare Organisations", "NAME": "Action For Aids Outpatient Clinic", "HYPERLINK": "http:\/\/www.afa.org.sg", "X_ADDR": 30571.206, "Y_ADDR": 32076.5756 }, "geometry": { "type": "Point", "coordinates": [ 103.856422079842716, 1.306363565235685 ] } },
{ "type": "Feature", "properties": { "OBJECTID": 13, "ADDRESSPOS": "238859", "ADDRESS": "290 Orchard Road, #11-09, Singapore 238859", "DESCRIPTIO": "Voluntary Welfare Organisations", "NAME": "Action Group for Mental Illness", "HYPERLINK": null, "X_ADDR": 28213.8712, "Y_ADDR": 31784.6085 }, "geometry": { "type": "Point", "coordinates": [ 103.83524031192276, 1.303723223673695 ] } },
{ "type": "Feature", "properties": { "OBJECTID": 14, "ADDRESSPOS": "400002", "ADDRESS": "2 Eunos Crescent, #01-2545, Singapore 400002", "DESCRIPTIO": "Voluntary Welfare Organisations", "NAME": "Active Ageing", "HYPERLINK": "http:\/\/www.ainsociety.org.sg", "X_ADDR": 35740.7334, "Y_ADDR": 33667.8471 }, "geometry": { "type": "Point", "coordinates": [ 103.902873108349837, 1.320753590802064 ] } },
{ "type": "Feature", "properties": { "OBJECTID": 15, "ADDRESSPOS": "579837", "ADDRESS": "9 Bishan Place, #010-1, Singapore 579837", "DESCRIPTIO": "Voluntary Welfare Organisations", "NAME": "Active Ageing Capability Fund", "HYPERLINK": "http:\/\/www.c3a.org.sg", "X_ADDR": 29687.0319, "Y_ADDR": 36928.1369 }, "geometry": { "type": "Point", "coordinates": [ 103.848477626073375, 1.350239427297009 ] } },
{ "type": "Feature", "properties": { "OBJECTID": 16, "ADDRESSPOS": "400003", "ADDRESS": "3 Eunos Crescent, #01-2591, Singapore 400003", "DESCRIPTIO": "Voluntary Welfare Organisations", "NAME": "Active Ageing Mindful Living", "HYPERLINK": null, "X_ADDR": 35780.6436, "Y_ADDR": 33659.0524 }, "geometry": { "type": "Point", "coordinates": [ 103.903231719923909, 1.320674044580354 ] } },
{ "type": "Feature", "properties": { "OBJECTID": 17, "ADDRESSPOS": "579837", "ADDRESS": "9 Bishan Place, #08-2, Singapore 579837", "DESCRIPTIO": "Voluntary Welfare Organisations", "NAME": "Active Ageing Seniors Programme", "HYPERLINK": "http:\/\/www.rsvp.org.sg", "X_ADDR": 29687.0319, "Y_ADDR": 36928.1369 }, "geometry": { "type": "Point", "coordinates": [ 103.848477626073375, 1.350239427297009 ] } },
{ "type": "Feature", "properties": { "OBJECTID": 18, "ADDRESSPOS": "600302", "ADDRESS": "302 Jurong East St 32, #01-22, Singapore 600302", "DESCRIPTIO": "Voluntary Welfare Organisations", "NAME": "Active Seniors Club", "HYPERLINK": "http:\/\/www.lakeside.org.sg", "X_ADDR": 16996.6442, "Y_ADDR": 36308.6187 }, "geometry": { "type": "Point", "coordinates": [ 103.734446758348653, 1.344634757876314 ] } },
{ "type": "Feature", "properties": { "OBJECTID": 19, "ADDRESSPOS": "730345", "ADDRESS": "345 Woodlands Street 32, #01-198, Singapore 730345", "DESCRIPTIO": "Voluntary Welfare Organisations", "NAME": "Care Corner FSC (Woodlands) - MCP", "HYPERLINK": "http:\/\/www.carecorner.org.sg", "X_ADDR": 22091.7001, "Y_ADDR": 46005.7515 }, "geometry": { "type": "Point", "coordinates": [ 103.780226948066868, 1.432333546078823 ] } },
{ "type": "Feature", "properties": { "OBJECTID": 20, "ADDRESSPOS": "730345", "ADDRESS": "345 Woodlands Street 32, #01-198, Singapore 730345", "DESCRIPTIO": "Voluntary Welfare Organisations", "NAME": "Care Corner FSC (Woodlands) - SPMF", "HYPERLINK": "http:\/\/www.carecorner.org.sg", "X_ADDR": 22091.7001, "Y_ADDR": 46005.7515 }, "geometry": { "type": "Point", "coordinates": [ 103.780226948066868, 1.432333546078823 ] } },
{ "type": "Feature", "properties": { "OBJECTID": 21, "ADDRESSPOS": "141007", "ADDRESS": "7A Commonwealth Ave, #01-672, Singapore 141007", "DESCRIPTIO": "Voluntary Welfare Organisations", "NAME": "Care Corner Project StART", "HYPERLINK": null, "X_ADDR": 23724.2828, "Y_ADDR": 32123.9538 }, "geometry": { "type": "Point", "coordinates": [ 103.794899235462069, 1.306791847835422 ] } },
{ "type": "Feature", "properties": { "OBJECTID": 22, "ADDRESSPOS": "310149", "ADDRESS": "106 Lorong 1 Toa Payoh, Singapore 310149", "DESCRIPTIO": "Voluntary Welfare Organisations", "NAME": "Care Corner SAC(TP106)", "HYPERLINK": null, "X_ADDR": 29162.1042, "Y_ADDR": 35108.6784 }, "geometry": { "type": "Point", "coordinates": [ 103.843760749804943, 1.333784915845176 ] } },
{ "type": "Feature", "properties": { "OBJECTID": 23, "ADDRESSPOS": "312062", "ADDRESS": "62B Lorong 4 Toa Payoh, #02-121, Singapore 312062", "DESCRIPTIO": "Voluntary Welfare Organisations", "NAME": "Care Corner Senior Activity Centre (Cluster Support)", "HYPERLINK": null, "X_ADDR": 29998.7308, "Y_ADDR": 35335.9159 }, "geometry": { "type": "Point", "coordinates": [ 103.851278331381877, 1.335839928434756 ] } },
{ "type": "Feature", "properties": { "OBJECTID": 24, "ADDRESSPOS": "310149", "ADDRESS": "149 Lorong 1 Toa Payoh, #01-963, Singapore 310149", "DESCRIPTIO": "Voluntary Welfare Organisations", "NAME": "Care Corner Senior Activity Centre (TP149)", "HYPERLINK": null, "X_ADDR": 29162.1042, "Y_ADDR": 35108.6784 }, "geometry": { "type": "Point", "coordinates": [ 103.843760749804943, 1.333784915845176 ] } },
{ "type": "Feature", "properties": { "OBJECTID": 25, "ADDRESSPOS": "310170", "ADDRESS": "170 Lor 1 Toa Payoh, #01-1102, Singapore 310170", "DESCRIPTIO": "Voluntary Welfare Organisations", "NAME": "Care Corner Senior Activity Centre (TP170)", "HYPERLINK": null, "X_ADDR": 29040.5733, "Y_ADDR": 34836.0401 }, "geometry": { "type": "Point", "coordinates": [ 103.842668715094959, 1.33131927611228 ] } },
{ "type": "Feature", "properties": { "OBJECTID": 26, "ADDRESSPOS": "199582", "ADDRESS": "420 Beach Road, Singapore 199582", "DESCRIPTIO": "Voluntary Welfare Organisations", "NAME": "Annual Teacher Officers Course", "HYPERLINK": "http:\/\/www.sjab.org.sg", "X_ADDR": 31314.9173, "Y_ADDR": 31562.5626 }, "geometry": { "type": "Point", "coordinates": [ 103.863104622978184, 1.301714943533821 ] } },
{ "type": "Feature", "properties": { "OBJECTID": 27, "ADDRESSPOS": "152119", "ADDRESS": "119 Bukit Merah View, #01-85, Singapore 152119", "DESCRIPTIO": "Voluntary Welfare Organisations", "NAME": "Apex Club Of Singapore (Bukit Timah)", "HYPERLINK": "http:\/\/www.apexbt.org", "X_ADDR": 26610.1259, "Y_ADDR": 29551.4791 }, "geometry": { "type": "Point", "coordinates": [ 103.82083001541929, 1.28352755723431 ] } },
{ "type": "Feature", "properties": { "OBJECTID": 28, "ADDRESSPOS": "152119", "ADDRESS": "119 Bukit Merah View, #01-85, Singapore 152119", "DESCRIPTIO": "Voluntary Welfare Organisations", "NAME": "Apex Club Of Singapore (City)", "HYPERLINK": "http:\/\/www.apexsg.org\/", "X_ADDR": 26610.1259, "Y_ADDR": 29551.4791 }, "geometry": { "type": "Point", "coordinates": [ 103.82083001541929, 1.28352755723431 ] } },
{ "type": "Feature", "properties": { "OBJECTID": 29, "ADDRESSPOS": "152119", "ADDRESS": "119 Bukit Merah View, #01-85, Singapore 152119", "DESCRIPTIO": "Voluntary Welfare Organisations", "NAME": "Apex Club Of Singapore (Radin Mas)", "HYPERLINK": "http:\/\/www.apexsg.org\/", "X_ADDR": 26610.1259, "Y_ADDR": 29551.4791 }, "geometry": { "type": "Point", "coordinates": [ 103.82083001541929, 1.28352755723431 ] } },
{ "type": "Feature", "properties": { "OBJECTID": 30, "ADDRESSPOS": "518240", "ADDRESS": "10 Pasir Ris Walk, Singapore 518240", "DESCRIPTIO": "Voluntary Welfare Organisations", "NAME": "Apex Harmony Lodge", "HYPERLINK": "http:\/\/www.apexharmony.org.sg", "X_ADDR": 42578.2312, "Y_ADDR": 39145.5201 }, "geometry": { "type": "Point", "coordinates": [ 103.964314153956707, 1.370289095716181 ] } },
{ "type": "Feature", "properties": { "OBJECTID": 31, "ADDRESSPOS": "518240", "ADDRESS": "10 Pasir Ris Walk, Singapore 518240", "DESCRIPTIO": "Voluntary Welfare Organisations", "NAME": "Apex Harmony Lodge (Dementia Day Care Centre)", "HYPERLINK": "http:\/\/www.apexharmony.org.sg", "X_ADDR": 42578.2312, "Y_ADDR": 39145.5201 }, "geometry": { "type": "Point", "coordinates": [ 103.964314153956707, 1.370289095716181 ] } },
{ "type": "Feature", "properties": { "OBJECTID": 32, "ADDRESSPOS": "48940", "ADDRESS": "50 Market Street, #10-4, Singapore 48940", "DESCRIPTIO": "Voluntary Welfare Organisations", "NAME": "Appropriate Adults Scheme", "HYPERLINK": "http:\/\/probono.lawsociety.org.sg\/", "X_ADDR": 29854.6886, "Y_ADDR": 29591.0519 }, "geometry": { "type": "Point", "coordinates": [ 103.849983686015079, 1.283885415953312 ] } },
{ "type": "Feature", "properties": { "OBJECTID": 33, "ADDRESSPOS": "438235", "ADDRESS": "29 Jalan Tembusu, Singapore 438235", "DESCRIPTIO": "Voluntary Welfare Organisations", "NAME": "APSN Centre For Adults", "HYPERLINK": "http:\/\/www.apsn.org.sg", "X_ADDR": 35191.337, "Y_ADDR": 31926.3812 }, "geometry": { "type": "Point", "coordinates": [ 103.89793609292019, 1.305004531912164 ] } },
{ "type": "Feature", "properties": { "OBJECTID": 34, "ADDRESSPOS": "688237", "ADDRESS": "3 Choa Chu Kang Grove, Singapore 688237", "DESCRIPTIO": "Voluntary Welfare Organisations", "NAME": "APSN Delta Senior School - REACH Network", "HYPERLINK": null, "X_ADDR": 18675.1146, "Y_ADDR": 39531.1261 }, "geometry": { "type": "Point", "coordinates": [ 103.749527814938673, 1.373778503037007 ] } },
{ "type": "Feature", "properties": { "OBJECTID": 35, "ADDRESSPOS": "467354", "ADDRESS": "900 New Upper Changi Road, Singapore 467354", "DESCRIPTIO": "Voluntary Welfare Organisations", "NAME": "APSN Katong School - REACH Network", "HYPERLINK": "http:\/\/www.apsn.org.sg", "X_ADDR": 40203.0581, "Y_ADDR": 34171.9699 }, "geometry": { "type": "Point", "coordinates": [ 103.942969584379881, 1.325311236296284 ] } },
{ "type": "Feature", "properties": { "OBJECTID": 36, "ADDRESSPOS": "569767", "ADDRESS": "18 Ang Mo Kio Ave 9, Singapore 569767", "DESCRIPTIO": "Voluntary Welfare Organisations", "NAME": "APSN Student Care Centre", "HYPERLINK": null, "X_ADDR": 28942.307, "Y_ADDR": 40581.3069 }, "geometry": { "type": "Point", "coordinates": [ 103.841785918453908, 1.38327742528716 ] } },
{ "type": "Feature", "properties": { "OBJECTID": 37, "ADDRESSPOS": "159924", "ADDRESS": "143 Alexandra Road, Singapore 159924", "DESCRIPTIO": "Voluntary Welfare Organisations", "NAME": "APSN Tanglin School - REACH Network", "HYPERLINK": null, "X_ADDR": 26494.9287, "Y_ADDR": 30312.7954 }, "geometry": { "type": "Point", "coordinates": [ 103.819794887111101, 1.290412629102054 ] } },
{ "type": "Feature", "properties": { "OBJECTID": 38, "ADDRESSPOS": "328827", "ADDRESS": "60 Kim Keat Road, #01-2, Singapore 328827", "DESCRIPTIO": "Voluntary Welfare Organisations", "NAME": "Activities for parents", "HYPERLINK": "http:\/\/www.arcchildren.org", "X_ADDR": 30300.8658, "Y_ADDR": 34174.5282 }, "geometry": { "type": "Point", "coordinates": [ 103.853993102530112, 1.325336727759926 ] } },
{ "type": "Feature", "properties": { "OBJECTID": 39, "ADDRESSPOS": "328827", "ADDRESS": "60 Kim Keat Road, #01-2, Singapore 328827", "DESCRIPTIO": "Voluntary Welfare Organisations", "NAME": "Activities for siblings", "HYPERLINK": "http:\/\/www.arcchildren.org", "X_ADDR": 30300.8658, "Y_ADDR": 34174.5282 }, "geometry": { "type": "Point", "coordinates": [ 103.853993102530112, 1.325336727759926 ] } },
{ "type": "Feature", "properties": { "OBJECTID": 40, "ADDRESSPOS": "260003", "ADDRESS": "3 Queen's Road, #01-169, Singapore 260003", "DESCRIPTIO": "Voluntary Welfare Organisations", "NAME": "ADAM Association", "HYPERLINK": "http:\/\/adam.org.sg\/", "X_ADDR": 25193.1059, "Y_ADDR": 33400.1382 }, "geometry": { "type": "Point", "coordinates": [ 103.808097190667013, 1.31833337730878 ] } },
{ "type": "Feature", "properties": { "OBJECTID": 41, "ADDRESSPOS": "209943", "ADDRESS": "1 Beatty Road, #04-402, Singapore 209943", "DESCRIPTIO": "Voluntary Welfare Organisations", "NAME": "Administration and Disbursement of Various Funds", "HYPERLINK": "http:\/\/www.siet-trust.org.sg", "X_ADDR": 30782.0845, "Y_ADDR": 32953.1433 }, "geometry": { "type": "Point", "coordinates": [ 103.858317002113083, 1.314290915334806 ] } },
{ "type": "Feature", "properties": { "OBJECTID": 42, "ADDRESSPOS": "48940", "ADDRESS": "50 Market Street, #010-4, Singapore 48940", "DESCRIPTIO": "Voluntary Welfare Organisations", "NAME": "Administration of Scholarship", "HYPERLINK": "http:\/\/probono.lawsociety.org.sg\/", "X_ADDR": 29854.6886, "Y_ADDR": 29591.0519 }, "geometry": { "type": "Point", "coordinates": [ 103.849983686015079, 1.283885415953312 ] } },
{ "type": "Feature", "properties": { "OBJECTID": 43, "ADDRESSPOS": "519457", "ADDRESS": "1 Pasir Ris Drive 4, #05-11, Singapore 519457", "DESCRIPTIO": "Voluntary Welfare Organisations", "NAME": "Adopt a Family & Youth Scheme (AFYS)", "HYPERLINK": "http:\/\/www.amp.org.sg", "X_ADDR": 42008.8742, "Y_ADDR": 38957.2832 }, "geometry": { "type": "Point", "coordinates": [ 103.959198003862596, 1.36858702853809 ] } },
{ "type": "Feature", "properties": { "OBJECTID": 44, "ADDRESSPOS": "368170", "ADDRESS": "450 Macpherson Road, Singapore 368170", "DESCRIPTIO": "Voluntary Welfare Organisations", "NAME": "Adoption Services", "HYPERLINK": "http:\/\/www.lccs.org.sg", "X_ADDR": 33432.0105, "Y_ADDR": 34892.9919 }, "geometry": { "type": "Point", "coordinates": [ 103.882128252268544, 1.33183385974666 ] } },
{ "type": "Feature", "properties": { "OBJECTID": 45, "ADDRESSPOS": "579837", "ADDRESS": "9 Bishan Place, #09-1, Singapore 579837", "DESCRIPTIO": "Voluntary Welfare Organisations", "NAME": "Adult Enhancement Programme", "HYPERLINK": "http:\/\/www.downsyndrome-singapore.org", "X_ADDR": 29687.0319, "Y_ADDR": 36928.1369 }, "geometry": { "type": "Point", "coordinates": [ 103.848477626073375, 1.350239427297009 ] } },
{ "type": "Feature", "properties": { "OBJECTID": 46, "ADDRESSPOS": "609648", "ADDRESS": "90 Jurong East Street 13, Singapore 609648", "DESCRIPTIO": "Voluntary Welfare Organisations", "NAME": "Adventist Community Services", "HYPERLINK": "http:\/\/www.communityservices.org.sg\/", "X_ADDR": 17436.0385, "Y_ADDR": 35318.5269 }, "geometry": { "type": "Point", "coordinates": [ 103.738395323530128, 1.335680888219003 ] } },
{ "type": "Feature", "properties": { "OBJECTID": 47, "ADDRESSPOS": "310195", "ADDRESS": "195 Kim Keat Avenue, #01-294, Singapore 310195", "DESCRIPTIO": "Voluntary Welfare Organisations", "NAME": "Adventist Home for the Elders", "HYPERLINK": "http:\/\/www.adventisthome.org.sg", "X_ADDR": 30786.2517, "Y_ADDR": 34699.1327 }, "geometry": { "type": "Point", "coordinates": [ 103.858354604578111, 1.330081025130109 ] } },
{ "type": "Feature", "properties": { "OBJECTID": 48, "ADDRESSPOS": "259570", "ADDRESS": "2 Cluny Road, Singapore 259570", "DESCRIPTIO": "Voluntary Welfare Organisations", "NAME": "Aftercare", "HYPERLINK": null, "X_ADDR": 26339.4384, "Y_ADDR": 32418.0621 }, "geometry": { "type": "Point", "coordinates": [ 103.818397630198902, 1.309451910725486 ] } },
{ "type": "Feature", "properties": { "OBJECTID": 49, "ADDRESSPOS": "639125", "ADDRESS": "1 Tuas Avenue 10, Singapore 639125", "DESCRIPTIO": "Voluntary Welfare Organisations", "NAME": "After-care Activities", "HYPERLINK": "http:\/\/www.hidingplace.com.sg", "X_ADDR": 7024.9787, "Y_ADDR": 34537.9361 }, "geometry": { "type": "Point", "coordinates": [ 103.644846768666241, 1.328616111755399 ] } },
{ "type": "Feature", "properties": { "OBJECTID": 50, "ADDRESSPOS": "259570", "ADDRESS": "2 Cluny Road, Singapore 259570", "DESCRIPTIO": "Voluntary Welfare Organisations", "NAME": "Aftercare Ministry", "HYPERLINK": "http:\/\/www.pfs.org.sg", "X_ADDR": 26339.4384, "Y_ADDR": 32418.0621 }, "geometry": { "type": "Point", "coordinates": [ 103.818397630198902, 1.309451910725486 ] } },
{ "type": "Feature", "properties": { "OBJECTID": 51, "ADDRESSPOS": "388700", "ADDRESS": "8 Geylang Lorong 11, Singapore 388700", "DESCRIPTIO": "Voluntary Welfare Organisations", "NAME": "Agape Counselling And Training Centre", "HYPERLINK": null, "X_ADDR": 32884.0373, "Y_ADDR": 32788.6072 }, "geometry": { "type": "Point", "coordinates": [ 103.877204070590039, 1.312802647373702 ] } },
{ "type": "Feature", "properties": { "OBJECTID": 52, "ADDRESSPOS": "339407", "ADDRESS": "2 Kallang Avenue, #08-14, Singapore 339407", "DESCRIPTIO": "Voluntary Welfare Organisations", "NAME": "Agape Methodist Hospice", "HYPERLINK": null, "X_ADDR": 31283.6945, "Y_ADDR": 32723.8741 }, "geometry": { "type": "Point", "coordinates": [ 103.862824193521604, 1.312217437323737 ] } },
{ "type": "Feature", "properties": { "OBJECTID": 53, "ADDRESSPOS": "369977", "ADDRESS": "8 Burn Road, #08-16, Singapore 369977", "DESCRIPTIO": "Voluntary Welfare Organisations", "NAME": "Agape Respite @MDAS", "HYPERLINK": "http:\/\/www.able-sg.org\/", "X_ADDR": 33806.3765, "Y_ADDR": 35340.0067 }, "geometry": { "type": "Point", "coordinates": [ 103.885492224843816, 1.335876433050477 ] } },
{ "type": "Feature", "properties": { "OBJECTID": 54, "ADDRESSPOS": "460013", "ADDRESS": "13 Bedok South Road, #01-605, Singapore 460013", "DESCRIPTIO": "Voluntary Welfare Organisations", "NAME": "Agape Students Centre", "HYPERLINK": null, "X_ADDR": 39509.9238, "Y_ADDR": 33629.4473 }, "geometry": { "type": "Point", "coordinates": [ 103.936741206687429, 1.320405131345965 ] } },
{ "type": "Feature", "properties": { "OBJECTID": 55, "ADDRESSPOS": "319253", "ADDRESS": "9 Lorong 8 Toa Payoh, Singapore 319253", "DESCRIPTIO": "Voluntary Welfare Organisations", "NAME": "Ahuva Good Shepherd", "HYPERLINK": "http:\/\/www.marymountctr.org.sg", "X_ADDR": 30633.624, "Y_ADDR": 35866.5201 }, "geometry": { "type": "Point", "coordinates": [ 103.856983260599776, 1.340638475582344 ] } },
{ "type": "Feature", "properties": { "OBJECTID": 56, "ADDRESSPOS": "400002", "ADDRESS": "2 Eunos Crescent, #01-2545, Singapore 400002", "DESCRIPTIO": "Voluntary Welfare Organisations", "NAME": "Ain Society - Enhanced STEP-UP (Service A)", "HYPERLINK": "http:\/\/www.ainsociety.org.sg", "X_ADDR": 35740.7334, "Y_ADDR": 33667.8471 }, "geometry": { "type": "Point", "coordinates": [ 103.902873108349837, 1.320753590802064 ] } },
{ "type": "Feature", "properties": { "OBJECTID": 57, "ADDRESSPOS": "400002", "ADDRESS": "2 Eunos Crescent, #01-2545, Singapore 400002", "DESCRIPTIO": "Voluntary Welfare Organisations", "NAME": "Ain Society - Enhanced STEP-UP (Service B)", "HYPERLINK": "http:\/\/www.ainsociety.org.sg", "X_ADDR": 35740.7334, "Y_ADDR": 33667.8471 }, "geometry": { "type": "Point", "coordinates": [ 103.902873108349837, 1.320753590802064 ] } },
{ "type": "Feature", "properties": { "OBJECTID": 58, "ADDRESSPOS": "409957", "ADDRESS": "10 Arumugam Road, #04-0, Singapore 409957", "DESCRIPTIO": "Voluntary Welfare Organisations", "NAME": "Alive Community Network - Enhanced STEP-UP (Service A)", "HYPERLINK": "http:\/\/alive.org.sg", "X_ADDR": 34428.0478, "Y_ADDR": 34201.7056 }, "geometry": { "type": "Point", "coordinates": [ 103.89107806015484, 1.325581919746695 ] } },
{ "type": "Feature", "properties": { "OBJECTID": 59, "ADDRESSPOS": "409957", "ADDRESS": "10 Arumugam Road, #04-0, Singapore 409957", "DESCRIPTIO": "Voluntary Welfare Organisations", "NAME": "Alive Community Network - Enhanced STEP-UP (Service B)", "HYPERLINK": "http:\/\/alive.org.sg", "X_ADDR": 34428.0478, "Y_ADDR": 34201.7056 }, "geometry": { "type": "Point", "coordinates": [ 103.89107806015484, 1.325581919746695 ] } },
{ "type": "Feature", "properties": { "OBJECTID": 60, "ADDRESSPOS": "409957", "ADDRESS": "10 Arumugam Road, #04-0, Singapore 409957", "DESCRIPTIO": "Voluntary Welfare Organisations", "NAME": "Alive Social Enterprise Program", "HYPERLINK": "http:\/\/alive.org.sg", "X_ADDR": 34428.0478, "Y_ADDR": 34201.7056 }, "geometry": { "type": "Point", "coordinates": [ 103.89107806015484, 1.325581919746695 ] } },
{ "type": "Feature", "properties": { "OBJECTID": 61, "ADDRESSPOS": "546703", "ADDRESS": "5 Poh Huat Road, Singapore 546703", "DESCRIPTIO": "Voluntary Welfare Organisations", "NAME": "All Saints Home - Hougang", "HYPERLINK": "http:\/\/www.allsaintshome.org.sg", "X_ADDR": 33635.5972, "Y_ADDR": 38608.2747 }, "geometry": { "type": "Point", "coordinates": [ 103.883958287149028, 1.365433506138151 ] } },
{ "type": "Feature", "properties": { "OBJECTID": 62, "ADDRESSPOS": "529123", "ADDRESS": "11 Tampines Street 44, Singapore 529123", "DESCRIPTIO": "Voluntary Welfare Organisations", "NAME": "All Saints Home - Tampines", "HYPERLINK": null, "X_ADDR": 41443.4111, "Y_ADDR": 38141.059 }, "geometry": { "type": "Point", "coordinates": [ 103.954116566220364, 1.361205666567433 ] } },
{ "type": "Feature", "properties": { "OBJECTID": 63, "ADDRESSPOS": "529123", "ADDRESS": "11 Tampines Street 44, Singapore 529123", "DESCRIPTIO": "Voluntary Welfare Organisations", "NAME": "All Saints Home (Day Rehabilitation Centre)", "HYPERLINK": null, "X_ADDR": 41443.4111, "Y_ADDR": 38141.059 }, "geometry": { "type": "Point", "coordinates": [ 103.954116566220364, 1.361205666567433 ] } },
{ "type": "Feature", "properties": { "OBJECTID": 64, "ADDRESSPOS": "680604", "ADDRESS": "604 Choa Chu Kang St 62, #01-53, Singapore 680604", "DESCRIPTIO": "Voluntary Welfare Organisations", "NAME": "Alpha Kidz", "HYPERLINK": null, "X_ADDR": 18130.2274, "Y_ADDR": 42229.4947 }, "geometry": { "type": "Point", "coordinates": [ 103.744630709666154, 1.398181374376429 ] } },
{ "type": "Feature", "properties": { "OBJECTID": 65, "ADDRESSPOS": "339940", "ADDRESS": "70 Bendemeer Road, #06-2, Singapore 339940", "DESCRIPTIO": "Voluntary Welfare Organisations", "NAME": "Alzheimer's Disease Association Specialised Caregiver Support Service (Dementia)", "HYPERLINK": "http:\/\/www.alz.org.sg", "X_ADDR": 31250.8892, "Y_ADDR": 33171.5496 }, "geometry": { "type": "Point", "coordinates": [ 103.862529469661709, 1.316266059465818 ] } },
{ "type": "Feature", "properties": { "OBJECTID": 66, "ADDRESSPOS": "229573", "ADDRESS": "10 Claymore Hill, Singapore 229573", "DESCRIPTIO": "Voluntary Welfare Organisations", "NAME": "American Women's Association", "HYPERLINK": "http:\/\/www.awasingapore.org", "X_ADDR": 27876.2819, "Y_ADDR": 32314.1735 }, "geometry": { "type": "Point", "coordinates": [ 103.832206913519698, 1.3085124242846 ] } },
{ "type": "Feature", "properties": { "OBJECTID": 67, "ADDRESSPOS": "519457", "ADDRESS": "1 Pasir Ris Drive 4, #05-11, Singapore 519457", "DESCRIPTIO": "Voluntary Welfare Organisations", "NAME": "AMP - Mercu Pre-School Centre", "HYPERLINK": "http:\/\/www.amp.org.sg", "X_ADDR": 42008.8742, "Y_ADDR": 38957.2832 }, "geometry": { "type": "Point", "coordinates": [ 103.959198003862596, 1.36858702853809 ] } },
{ "type": "Feature", "properties": { "OBJECTID": 68, "ADDRESSPOS": "730874", "ADDRESS": "874 Woodlands St 82, #01-522, Singapore 730874", "DESCRIPTIO": "Voluntary Welfare Organisations", "NAME": "AMP Childcare & Development Centre (Woodlands)", "HYPERLINK": null, "X_ADDR": 23128.7564, "Y_ADDR": 47176.379 }, "geometry": { "type": "Point", "coordinates": [ 103.789545669642067, 1.442920471175074 ] } },
{ "type": "Feature", "properties": { "OBJECTID": 69, "ADDRESSPOS": "760173", "ADDRESS": "173 Yishun Ave 7, #01-817, Singapore 760173", "DESCRIPTIO": "Voluntary Welfare Organisations", "NAME": "AMP Childcare & Development Centre (Yishun)", "HYPERLINK": null, "X_ADDR": 27755.4094, "Y_ADDR": 46528.0059 }, "geometry": { "type": "Point", "coordinates": [ 103.831120696988833, 1.437057243806826 ] } },
{ "type": "Feature", "properties": { "OBJECTID": 70, "ADDRESSPOS": "519457", "ADDRESS": "1 Pasir Ris Drive 4, #05-11, Singapore 519457", "DESCRIPTIO": "Voluntary Welfare Organisations", "NAME": "AMP Financial\/Material Assistance", "HYPERLINK": "http:\/\/www.amp.org.sg", "X_ADDR": 42008.8742, "Y_ADDR": 38957.2832 }, "geometry": { "type": "Point", "coordinates": [ 103.959198003862596, 1.36858702853809 ] } },
{ "type": "Feature", "properties": { "OBJECTID": 71, "ADDRESSPOS": "519457", "ADDRESS": "1 Pasir Ris Drive 4, #05-11, Singapore 519457", "DESCRIPTIO": "Voluntary Welfare Organisations", "NAME": "AMP Pasir Ris - MCP", "HYPERLINK": "http:\/\/www.amp.org.sg", "X_ADDR": 42008.8742, "Y_ADDR": 38957.2832 }, "geometry": { "type": "Point", "coordinates": [ 103.959198003862596, 1.36858702853809 ] } },
{ "type": "Feature", "properties": { "OBJECTID": 72, "ADDRESSPOS": "469031", "ADDRESS": "8 Chai Chee Lane, Singapore 469031", "DESCRIPTIO": "Voluntary Welfare Organisations", "NAME": "AMP Student Care Centre", "HYPERLINK": "http:\/\/www.amp.org.sg", "X_ADDR": 37634.2284, "Y_ADDR": 34590.9619 }, "geometry": { "type": "Point", "coordinates": [ 103.919887427055855, 1.329101368135318 ] } },
{ "type": "Feature", "properties": { "OBJECTID": 73, "ADDRESSPOS": "400001", "ADDRESS": "1 Eunos Crescent, #01-2509, Singapore 400001", "DESCRIPTIO": "Voluntary Welfare Organisations", "NAME": "An Nisaa Centre", "HYPERLINK": "http:\/\/www.ppis.sg", "X_ADDR": 35695.1421, "Y_ADDR": 33657.2377 }, "geometry": { "type": "Point", "coordinates": [ 103.902463445174973, 1.320657654709351 ] } },
{ "type": "Feature", "properties": { "OBJECTID": 74, "ADDRESSPOS": "387715", "ADDRESS": "6A Mattar Road, Singapore 387715", "DESCRIPTIO": "Voluntary Welfare Organisations", "NAME": "Andrew & Grace Home", "HYPERLINK": "http:\/\/www.geocities.com\/aghome.sg\/", "X_ADDR": 33471.8622, "Y_ADDR": 34123.7519 }, "geometry": { "type": "Point", "coordinates": [ 103.882486203778001, 1.324877120940285 ] } },
{ "type": "Feature", "properties": { "OBJECTID": 75, "ADDRESSPOS": "560610", "ADDRESS": "610 Ang Mo Kio Ave 4, #01-1227, Singapore 560610", "DESCRIPTIO": "Voluntary Welfare Organisations", "NAME": "Ang Mo Kio Child Care Centre", "HYPERLINK": "http:\/\/www.salvationarmy.org.sg", "X_ADDR": 28649.7688, "Y_ADDR": 40151.9743 }, "geometry": { "type": "Point", "coordinates": [ 103.839157232731196, 1.379394702932173 ] } },
{ "type": "Feature", "properties": { "OBJECTID": 76, "ADDRESSPOS": "560230", "ADDRESS": "230 Ang Mo Kio Ave 3, #01-1264, Singapore 560230", "DESCRIPTIO": "Voluntary Welfare Organisations", "NAME": "Ang Mo Kio Family Service Centres The (AMK)", "HYPERLINK": "http:\/\/www.amkfsc.org.sg", "X_ADDR": 28509.4567, "Y_ADDR": 38986.4857 }, "geometry": { "type": "Point", "coordinates": [ 103.837896404772806, 1.368854443444632 ] } },
{ "type": "Feature", "properties": { "OBJECTID": 77, "ADDRESSPOS": "560445", "ADDRESS": "445 Ang Mo Kio Avenue 10, #01-1647, Singapore 560445", "DESCRIPTIO": "Voluntary Welfare Organisations", "NAME": "Ang Mo Kio Family Service Centres The (Cheng San)", "HYPERLINK": "http:\/\/www.amkfsc.org.sg", "X_ADDR": 30478.0707, "Y_ADDR": 38782.8924 }, "geometry": { "type": "Point", "coordinates": [ 103.855585761158082, 1.367013118934135 ] } },
{ "type": "Feature", "properties": { "OBJECTID": 78, "ADDRESSPOS": "544223", "ADDRESS": "223D Compassvale Walk, #01-673, Singapore 544223", "DESCRIPTIO": "Voluntary Welfare Organisations", "NAME": "Ang Mo Kio Family Service Centres The (Sengkang)", "HYPERLINK": "http:\/\/www.amkfsc.org.sg", "X_ADDR": 35127.8213, "Y_ADDR": 41222.4498 }, "geometry": { "type": "Point", "coordinates": [ 103.897367569560103, 1.389074834946454 ] } },
{ "type": "Feature", "properties": { "OBJECTID": 79, "ADDRESSPOS": "560445", "ADDRESS": "445 Ang Mo Kio Avenue 10, #01-1647, Singapore 560445", "DESCRIPTIO": "Voluntary Welfare Organisations", "NAME": "Ang Mo Kio FSC (SELF)", "HYPERLINK": "http:\/\/www.amkfsc.org.sg", "X_ADDR": 30478.0707, "Y_ADDR": 38782.8924 }, "geometry": { "type": "Point", "coordinates": [ 103.855585761158082, 1.367013118934135 ] } },
{ "type": "Feature", "properties": { "OBJECTID": 80, "ADDRESSPOS": "560230", "ADDRESS": "230 Ang Mo Kio Ave 3, #01-1264, Singapore 560230", "DESCRIPTIO": "Voluntary Welfare Organisations", "NAME": "Ang Mo Kio FSCs The (AMK) - SPMF", "HYPERLINK": "http:\/\/www.amkfsc.org.sg", "X_ADDR": 28509.4567, "Y_ADDR": 38986.4857 }, "geometry": { "type": "Point", "coordinates": [ 103.837896404772806, 1.368854443444632 ] } },
{ "type": "Feature", "properties": { "OBJECTID": 81, "ADDRESSPOS": "560445", "ADDRESS": "445 Ang Mo Kio Avenue 10, #01-1647, Singapore 560445", "DESCRIPTIO": "Voluntary Welfare Organisations", "NAME": "Ang Mo Kio FSCs The (Cheng San) - SPMF", "HYPERLINK": "http:\/\/www.amkfsc.org.sg", "X_ADDR": 30478.0707, "Y_ADDR": 38782.8924 }, "geometry": { "type": "Point", "coordinates": [ 103.855585761158082, 1.367013118934135 ] } },
{ "type": "Feature", "properties": { "OBJECTID": 82, "ADDRESSPOS": "544223", "ADDRESS": "223D Compassvale Walk, #01-673, Singapore 544223", "DESCRIPTIO": "Voluntary Welfare Organisations", "NAME": "Ang Mo Kio FSCs The (Sengkang) -SPMF", "HYPERLINK": "http:\/\/www.amkfsc.org.sg", "X_ADDR": 35127.8213, "Y_ADDR": 41222.4498 }, "geometry": { "type": "Point", "coordinates": [ 103.897367569560103, 1.389074834946454 ] } },
{ "type": "Feature", "properties": { "OBJECTID": 83, "ADDRESSPOS": "569766", "ADDRESS": "17 Ang Mo Kio Avenue 9, Singapore 569766", "DESCRIPTIO": "Voluntary Welfare Organisations", "NAME": "Ang Mo Kio Hospital", "HYPERLINK": "http:\/\/www.amkh.org.sg", "X_ADDR": 28762.711, "Y_ADDR": 40692.0735 }, "geometry": { "type": "Point", "coordinates": [ 103.840172114969803, 1.384279164871398 ] } },
{ "type": "Feature", "properties": { "OBJECTID": 84, "ADDRESSPOS": "560715", "ADDRESS": "715 Ang Mo Kio Ave 6, #01-4008, Singapore 560715", "DESCRIPTIO": "Voluntary Welfare Organisations", "NAME": "Ang Mo Kio Medical Centre", "HYPERLINK": null, "X_ADDR": 29400.76, "Y_ADDR": 39220.7807 }, "geometry": { "type": "Point", "coordinates": [ 103.845905399775873, 1.370973294904888 ] } },
{ "type": "Feature", "properties": { "OBJECTID": 85, "ADDRESSPOS": "560230", "ADDRESS": "230 Ang Mo Kio Ave 3, #01-1264, Singapore 560230", "DESCRIPTIO": "Voluntary Welfare Organisations", "NAME": "Ang Mo Kio Social Service Child Development Centre", "HYPERLINK": "http:\/\/www.amkfsc.org.sg", "X_ADDR": 28509.4567, "Y_ADDR": 38986.4857 }, "geometry": { "type": "Point", "coordinates": [ 103.837896404772806, 1.368854443444632 ] } },
{ "type": "Feature", "properties": { "OBJECTID": 86, "ADDRESSPOS": "560230", "ADDRESS": "230 Ang Mo Kio Ave 3, #01-1264, Singapore 560230", "DESCRIPTIO": "Voluntary Welfare Organisations", "NAME": "Ang Mo Kio Student Care Centres The (AMK)", "HYPERLINK": "http:\/\/www.amkfsc.org.sg", "X_ADDR": 28509.4567, "Y_ADDR": 38986.4857 }, "geometry": { "type": "Point", "coordinates": [ 103.837896404772806, 1.368854443444632 ] } },
{ "type": "Feature", "properties": { "OBJECTID": 87, "ADDRESSPOS": "560445", "ADDRESS": "445 Ang Mo Kio Avenue 10, #01-1647, Singapore 560445", "DESCRIPTIO": "Voluntary Welfare Organisations", "NAME": "Ang Mo Kio Student Care Centres The (Cheng San)", "HYPERLINK": "http:\/\/www.amkfsc.org.sg", "X_ADDR": 30478.0707, "Y_ADDR": 38782.8924 }, "geometry": { "type": "Point", "coordinates": [ 103.855585761158082, 1.367013118934135 ] } },
{ "type": "Feature", "properties": { "OBJECTID": 88, "ADDRESSPOS": "560134", "ADDRESS": "134 Ang Mo Kio Ave 3 Street 12, #01-1677, Singapore 560134", "DESCRIPTIO": "Voluntary Welfare Organisations", "NAME": "Ang Mo Kio Training & Development Centre", "HYPERLINK": "http:\/\/www.minds.org.sg", "X_ADDR": 28960.3202, "Y_ADDR": 39342.7819 }, "geometry": { "type": "Point", "coordinates": [ 103.841947739507319, 1.372076648683606 ] } },
{ "type": "Feature", "properties": { "OBJECTID": 89, "ADDRESSPOS": "259570", "ADDRESS": "2 Cluny Road, Singapore 259570", "DESCRIPTIO": "Voluntary Welfare Organisations", "NAME": "Angel Tree Project", "HYPERLINK": "http:\/\/www.pfs.org.sg", "X_ADDR": 26339.4384, "Y_ADDR": 32418.0621 }, "geometry": { "type": "Point", "coordinates": [ 103.818397630198902, 1.309451910725486 ] } },
{ "type": "Feature", "properties": { "OBJECTID": 90, "ADDRESSPOS": "409074", "ADDRESS": "11 Jalan Ubi Block 5, #01-41, Singapore 409074", "DESCRIPTIO": "Voluntary Welfare Organisations", "NAME": "Anger Intensive Management (AIM)", "HYPERLINK": "http:\/\/www.wecare.org.sg", "X_ADDR": 35368.6015, "Y_ADDR": 33322.2896 }, "geometry": { "type": "Point", "coordinates": [ 103.899529228871089, 1.31762858576771 ] } },
{ "type": "Feature", "properties": { "OBJECTID": 91, "ADDRESSPOS": "199582", "ADDRESS": "420 Beach Road, Singapore 199582", "DESCRIPTIO": "Voluntary Welfare Organisations", "NAME": "Annual NCO Training Course", "HYPERLINK": "http:\/\/www.sjab.org.sg", "X_ADDR": 31314.9173, "Y_ADDR": 31562.5626 }, "geometry": { "type": "Point", "coordinates": [ 103.863104622978184, 1.301714943533821 ] } },
{ "type": "Feature", "properties": { "OBJECTID": 92, "ADDRESSPOS": "199582", "ADDRESS": "420 Beach Road, Singapore 199582", "DESCRIPTIO": "Voluntary Welfare Organisations", "NAME": "Annual Officer Training Course", "HYPERLINK": "http:\/\/www.sjab.org.sg", "X_ADDR": 31314.9173, "Y_ADDR": 31562.5626 }, "geometry": { "type": "Point", "coordinates": [ 103.863104622978184, 1.301714943533821 ] } },
{ "type": "Feature", "properties": { "OBJECTID": 93, "ADDRESSPOS": "760111", "ADDRESS": "111 Yishun Ring Road, #01-375, Singapore 760111", "DESCRIPTIO": "Voluntary Welfare Organisations", "NAME": "Bursary and scholarship", "HYPERLINK": "http:\/\/www.namhongcares.org", "X_ADDR": 27476.841, "Y_ADDR": 46102.8892 }, "geometry": { "type": "Point", "coordinates": [ 103.828617501209834, 1.433212637635052 ] } },
{ "type": "Feature", "properties": { "OBJECTID": 94, "ADDRESSPOS": "209943", "ADDRESS": "1 Beatty Road, #04-402, Singapore 209943", "DESCRIPTIO": "Voluntary Welfare Organisations", "NAME": "Bursary Awards Ceremony", "HYPERLINK": "http:\/\/www.siet-trust.org.sg", "X_ADDR": 30782.0845, "Y_ADDR": 32953.1433 }, "geometry": { "type": "Point", "coordinates": [ 103.858317002113083, 1.314290915334806 ] } },
{ "type": "Feature", "properties": { "OBJECTID": 95, "ADDRESSPOS": "469028", "ADDRESS": "512 Chai Chee Lane, #01-7-Sep, Singapore 469028", "DESCRIPTIO": "Voluntary Welfare Organisations", "NAME": "Business Development Division", "HYPERLINK": "http:\/\/www.bizlink.org.sg", "X_ADDR": 37412.1793, "Y_ADDR": 34689.6609 }, "geometry": { "type": "Point", "coordinates": [ 103.917892226348343, 1.32999403461048 ] } },
{ "type": "Feature", "properties": { "OBJECTID": 96, "ADDRESSPOS": "730718", "ADDRESS": "718 Woodlands Avenue 6, #01-658, Singapore 730718", "DESCRIPTIO": "Voluntary Welfare Organisations", "NAME": "C.O.S.Y. (Connecting Out of School Youths)", "HYPERLINK": "http:\/\/www.carecorner.org.sg", "X_ADDR": 24415.2947, "Y_ADDR": 47029.8493 }, "geometry": { "type": "Point", "coordinates": [ 103.801106497210441, 1.441595504283966 ] } },
{ "type": "Feature", "properties": { "OBJECTID": 97, "ADDRESSPOS": "319758", "ADDRESS": "381 Toa Payoh Lorong 1, Singapore 319758", "DESCRIPTIO": "Voluntary Welfare Organisations", "NAME": "Camp Teen: Youth Racial Harmony Ambassadors Programme", "HYPERLINK": "http:\/\/www.onepeople.sg\/", "X_ADDR": 29309.1761, "Y_ADDR": 35825.6616 }, "geometry": { "type": "Point", "coordinates": [ 103.845082305622796, 1.340269052387423 ] } },
{ "type": "Feature", "properties": { "OBJECTID": 98, "ADDRESSPOS": "760151", "ADDRESS": "151 Yishun Street 11, #01-26, Singapore 760151", "DESCRIPTIO": "Voluntary Welfare Organisations", "NAME": "CampusImpact Centre", "HYPERLINK": "http:\/\/www.campusimpact.org.sg", "X_ADDR": 28105.6727, "Y_ADDR": 45836.8114 }, "geometry": { "type": "Point", "coordinates": [ 103.8342681474264, 1.430806331915395 ] } },
{ "type": "Feature", "properties": { "OBJECTID": 99, "ADDRESSPOS": "387621", "ADDRESS": "1 Sallim Road, Singapore 387621", "DESCRIPTIO": "Voluntary Welfare Organisations", "NAME": "Canossaville Children's Home - Residential Care", "HYPERLINK": "http:\/\/home1.pacific.net.sg\/~canossa\/cchchld.html", "X_ADDR": 33306.6919, "Y_ADDR": 34342.2887 }, "geometry": { "type": "Point", "coordinates": [ 103.881002098853131, 1.326853519827487 ] } },
{ "type": "Feature", "properties": { "OBJECTID": 100, "ADDRESSPOS": "387621", "ADDRESS": "1 Sallim Road, Singapore 387621", "DESCRIPTIO": "Voluntary Welfare Organisations", "NAME": "Canossaville Children's Home - Special Student Care Centre", "HYPERLINK": "http:\/\/home1.pacific.net.sg\/~canossa\/cchchld.html", "X_ADDR": 33306.6919, "Y_ADDR": 34342.2887 }, "geometry": { "type": "Point", "coordinates": [ 103.881002098853131, 1.326853519827487 ] } },
{ "type": "Feature", "properties": { "OBJECTID": 101, "ADDRESSPOS": "387621", "ADDRESS": "1 Sallim Road, Singapore 387621", "DESCRIPTIO": "Voluntary Welfare Organisations", "NAME": "Canossaville Children's Home - SPMF", "HYPERLINK": "http:\/\/home1.pacific.net.sg\/~canossa\/cchchld.html", "X_ADDR": 33306.6919, "Y_ADDR": 34342.2887 }, "geometry": { "type": "Point", "coordinates": [ 103.881002098853131, 1.326853519827487 ] } },
{ "type": "Feature", "properties": { "OBJECTID": 102, "ADDRESSPOS": "387621", "ADDRESS": "1 Sallim Road, Singapore 387621", "DESCRIPTIO": "Voluntary Welfare Organisations", "NAME": "Canossaville Student Care Centre", "HYPERLINK": "http:\/\/home1.pacific.net.sg\/~canossa\/cchchld.html", "X_ADDR": 33306.6919, "Y_ADDR": 34342.2887 }, "geometry": { "type": "Point", "coordinates": [ 103.881002098853131, 1.326853519827487 ] } },
{ "type": "Feature", "properties": { "OBJECTID": 103, "ADDRESSPOS": "387621", "ADDRESS": "1 Sallim Road, Singapore 387621", "DESCRIPTIO": "Voluntary Welfare Organisations", "NAME": "Canossian EIPIC", "HYPERLINK": null, "X_ADDR": 33306.6919, "Y_ADDR": 34342.2887 }, "geometry": { "type": "Point", "coordinates": [ 103.881002098853131, 1.326853519827487 ] } },
{ "type": "Feature", "properties": { "OBJECTID": 104, "ADDRESSPOS": "387621", "ADDRESS": "1 Sallim Road, Singapore 387621", "DESCRIPTIO": "Voluntary Welfare Organisations", "NAME": "Canossian School", "HYPERLINK": null, "X_ADDR": 33306.6919, "Y_ADDR": 34342.2887 }, "geometry": { "type": "Point", "coordinates": [ 103.881002098853131, 1.326853519827487 ] } },
{ "type": "Feature", "properties": { "OBJECTID": 105, "ADDRESSPOS": "387621", "ADDRESS": "1 Sallim Road, Singapore 387621", "DESCRIPTIO": "Voluntary Welfare Organisations", "NAME": "Canossian School - REACH Network", "HYPERLINK": null, "X_ADDR": 33306.6919, "Y_ADDR": 34342.2887 }, "geometry": { "type": "Point", "coordinates": [ 103.881002098853131, 1.326853519827487 ] } },
{ "type": "Feature", "properties": { "OBJECTID": 106, "ADDRESSPOS": "387621", "ADDRESS": "1 Sallim Road, Singapore 387621", "DESCRIPTIO": "Voluntary Welfare Organisations", "NAME": "Canossian School - SPMF", "HYPERLINK": null, "X_ADDR": 33306.6919, "Y_ADDR": 34342.2887 }, "geometry": { "type": "Point", "coordinates": [ 103.881002098853131, 1.326853519827487 ] } },
{ "type": "Feature", "properties": { "OBJECTID": 107, "ADDRESSPOS": "730718", "ADDRESS": "718 Woodlands Avenue 6, #01-658, Singapore 730718", "DESCRIPTIO": "Voluntary Welfare Organisations", "NAME": "Care Corner FSC (Admiralty) - MCP", "HYPERLINK": "http:\/\/www.carecorner.org.sg", "X_ADDR": 24415.2947, "Y_ADDR": 47029.8493 }, "geometry": { "type": "Point", "coordinates": [ 103.801106497210441, 1.441595504283966 ] } },
{ "type": "Feature", "properties": { "OBJECTID": 108, "ADDRESSPOS": "730718", "ADDRESS": "718 Woodlands Avenue 6, #01-658, Singapore 730718", "DESCRIPTIO": "Voluntary Welfare Organisations", "NAME": "Care Corner FSC (Admiralty) - SPMF", "HYPERLINK": "http:\/\/www.carecorner.org.sg", "X_ADDR": 24415.2947, "Y_ADDR": 47029.8493 }, "geometry": { "type": "Point", "coordinates": [ 103.801106497210441, 1.441595504283966 ] } },
{ "type": "Feature", "properties": { "OBJECTID": 109, "ADDRESSPOS": "141088", "ADDRESS": "88 Tanglin Halt Road, #05-1, Singapore 141088", "DESCRIPTIO": "Voluntary Welfare Organisations", "NAME": "Care Corner FSC (Queenstown) - MCP", "HYPERLINK": "http:\/\/www.carecorner.org.sg", "X_ADDR": 24071.7822, "Y_ADDR": 31598.2958 }, "geometry": { "type": "Point", "coordinates": [ 103.798021747973308, 1.302038029100648 ] } },
{ "type": "Feature", "properties": { "OBJECTID": 110, "ADDRESSPOS": "141088", "ADDRESS": "88 Tanglin Halt Road, #05-1, Singapore 141088", "DESCRIPTIO": "Voluntary Welfare Organisations", "NAME": "Care Corner FSC (Queenstown) - SPMF", "HYPERLINK": "http:\/\/www.carecorner.org.sg", "X_ADDR": 24071.7822, "Y_ADDR": 31598.2958 }, "geometry": { "type": "Point", "coordinates": [ 103.798021747973308, 1.302038029100648 ] } },
{ "type": "Feature", "properties": { "OBJECTID": 111, "ADDRESSPOS": "560102", "ADDRESS": "102 Ang Mo Kio Ave 3, #01-1429, Singapore 560102", "DESCRIPTIO": "Voluntary Welfare Organisations", "NAME": "Child at Street 11", "HYPERLINK": "http:\/\/www.street11.org.sg", "X_ADDR": 28677.94, "Y_ADDR": 39185.0397 }, "geometry": { "type": "Point", "coordinates": [ 103.839410348778614, 1.370650092427096 ] } },
{ "type": "Feature", "properties": { "OBJECTID": 112, "ADDRESSPOS": "470136", "ADDRESS": "136 Bedok Reservoir Road, #01-1425, Singapore 470136", "DESCRIPTIO": "Voluntary Welfare Organisations", "NAME": "Child Development Centre - Bedok Reservoir", "HYPERLINK": null, "X_ADDR": 36913.4453, "Y_ADDR": 35070.6669 }, "geometry": { "type": "Point", "coordinates": [ 103.913410939228754, 1.333439865816847 ] } },
{ "type": "Feature", "properties": { "OBJECTID": 113, "ADDRESSPOS": "640826", "ADDRESS": "826 Jurong West St. 81, Singapore 640826", "DESCRIPTIO": "Voluntary Welfare Organisations", "NAME": "Child Development Centre - Jurong", "HYPERLINK": null, "X_ADDR": 12542.3629, "Y_ADDR": 36465.2687 }, "geometry": { "type": "Point", "coordinates": [ 103.694422327506999, 1.346049478998952 ] } },
{ "type": "Feature", "properties": { "OBJECTID": 114, "ADDRESSPOS": "750316", "ADDRESS": "316 Sembawang Vista, #01-191, Singapore 750316", "DESCRIPTIO": "Voluntary Welfare Organisations", "NAME": "Child Development Centre - Sembawang Vista", "HYPERLINK": null, "X_ADDR": 26608.7284, "Y_ADDR": 47554.7548 }, "geometry": { "type": "Point", "coordinates": [ 103.820816616542402, 1.446342754788887 ] } },
{ "type": "Feature", "properties": { "OBJECTID": 115, "ADDRESSPOS": "68912", "ADDRESS": "168 Robinson Road, #030-1, Singapore 68912", "DESCRIPTIO": "Voluntary Welfare Organisations", "NAME": "Capitaland Hope Foundation", "HYPERLINK": "http:\/\/www.capitalandhopefoundation.com", "X_ADDR": 29577.4615, "Y_ADDR": 28901.723 }, "geometry": { "type": "Point", "coordinates": [ 103.847492657303846, 1.277651382355566 ] } },
{ "type": "Feature", "properties": { "OBJECTID": 116, "ADDRESSPOS": "270003", "ADDRESS": "3 Ghim Moh Road, #01-294, Singapore 270003", "DESCRIPTIO": "Voluntary Welfare Organisations", "NAME": "Care & Counselling", "HYPERLINK": "http:\/\/www.cwa.org.sg", "X_ADDR": 22865.7791, "Y_ADDR": 32701.0354 }, "geometry": { "type": "Point", "coordinates": [ 103.787185080189943, 1.312010638822888 ] } },
{ "type": "Feature", "properties": { "OBJECTID": 117, "ADDRESSPOS": "390010", "ADDRESS": "10 Dakota Crescent, #01-11, Singapore 390010", "DESCRIPTIO": "Voluntary Welfare Organisations", "NAME": "Care and Friends Centre", "HYPERLINK": null, "X_ADDR": 33691.3662, "Y_ADDR": 32074.1435 }, "geometry": { "type": "Point", "coordinates": [ 103.884458187449482, 1.306341153554868 ] } },
{ "type": "Feature", "properties": { "OBJECTID": 118, "ADDRESSPOS": "409045", "ADDRESS": "247 Paya Lebar Road, #03-2, Singapore 409045", "DESCRIPTIO": "Voluntary Welfare Organisations", "NAME": "Care Community Services Society - Enhanced STEP-UP (Service A)", "HYPERLINK": "http:\/\/www.carecom.org.sg", "X_ADDR": 34182.9078, "Y_ADDR": 34834.5839 }, "geometry": { "type": "Point", "coordinates": [ 103.888875472511046, 1.331305495022973 ] } },
{ "type": "Feature", "properties": { "OBJECTID": 119, "ADDRESSPOS": "409045", "ADDRESS": "247 Paya Lebar Road, #03-2, Singapore 409045", "DESCRIPTIO": "Voluntary Welfare Organisations", "NAME": "Care Community Services Society - Enhanced STEP-UP (Service B)", "HYPERLINK": "http:\/\/www.carecom.org.sg", "X_ADDR": 34182.9078, "Y_ADDR": 34834.5839 }, "geometry": { "type": "Point", "coordinates": [ 103.888875472511046, 1.331305495022973 ] } },
{ "type": "Feature", "properties": { "OBJECTID": 120, "ADDRESSPOS": "409045", "ADDRESS": "247 Paya Lebar Road, #03-2, Singapore 409045", "DESCRIPTIO": "Voluntary Welfare Organisations", "NAME": "Care Community Services Society Befriender", "HYPERLINK": "http:\/\/www.carecom.org.sg", "X_ADDR": 34182.9078, "Y_ADDR": 34834.5839 }, "geometry": { "type": "Point", "coordinates": [ 103.888875472511046, 1.331305495022973 ] } },
{ "type": "Feature", "properties": { "OBJECTID": 121, "ADDRESSPOS": "409045", "ADDRESS": "247 Paya Lebar Road, #03-2, Singapore 409045", "DESCRIPTIO": "Voluntary Welfare Organisations", "NAME": "Care Community Services Society Financial Assistance", "HYPERLINK": "http:\/\/www.carecom.org.sg", "X_ADDR": 34182.9078, "Y_ADDR": 34834.5839 }, "geometry": { "type": "Point", "coordinates": [ 103.888875472511046, 1.331305495022973 ] } },
{ "type": "Feature", "properties": { "OBJECTID": 122, "ADDRESSPOS": "141088", "ADDRESS": "88 Tanglin Halt Road, #05-1, Singapore 141088", "DESCRIPTIO": "Voluntary Welfare Organisations", "NAME": "Care Connection", "HYPERLINK": "http:\/\/www.carecorner.org.sg", "X_ADDR": 24071.7822, "Y_ADDR": 31598.2958 }, "geometry": { "type": "Point", "coordinates": [ 103.798021747973308, 1.302038029100648 ] } },
{ "type": "Feature", "properties": { "OBJECTID": 123, "ADDRESSPOS": "560346", "ADDRESS": "346 Ang Mo Kio Ave 3, #01-2280, Singapore 560346", "DESCRIPTIO": "Voluntary Welfare Organisations", "NAME": "Care Corner - Teck Ghee Youth Centre - Enhanced STEP-UP (Service B)", "HYPERLINK": "http:\/\/www.carecorner.org.sg", "X_ADDR": 29818.8614, "Y_ADDR": 38792.0368 }, "geometry": { "type": "Point", "coordinates": [ 103.849662310469483, 1.367095865505719 ] } },
{ "type": "Feature", "properties": { "OBJECTID": 124, "ADDRESSPOS": "320014", "ADDRESS": "14 St George's Road, #01-70, Singapore 320014", "DESCRIPTIO": "Voluntary Welfare Organisations", "NAME": "Care Corner Child Development Centre - St George's", "HYPERLINK": "http:\/\/www.carecorner.org.sg", "X_ADDR": 31201.7971, "Y_ADDR": 33996.8287 }, "geometry": { "type": "Point", "coordinates": [ 103.862088437095778, 1.323729595282048 ] } },
{ "type": "Feature", "properties": { "OBJECTID": 125, "ADDRESSPOS": "760270", "ADDRESS": "270 Yishun St 22, #01-58, Singapore 760270", "DESCRIPTIO": "Voluntary Welfare Organisations", "NAME": "Care Corner Child Development Centre - Yishun", "HYPERLINK": "http:\/\/www.carecorner.org.sg", "X_ADDR": 28741.5884, "Y_ADDR": 46568.267 }, "geometry": { "type": "Point", "coordinates": [ 103.839982464174966, 1.437421341039909 ] } },
{ "type": "Feature", "properties": { "OBJECTID": 126, "ADDRESSPOS": "312062", "ADDRESS": "62B Lorong 4 Toa Payoh, #02-143, Singapore 312062", "DESCRIPTIO": "Voluntary Welfare Organisations", "NAME": "Care Corner Counselling Centre", "HYPERLINK": "http:\/\/www.carecorner.org.sg", "X_ADDR": 29998.7308, "Y_ADDR": 35335.9159 }, "geometry": { "type": "Point", "coordinates": [ 103.851278331381877, 1.335839928434756 ] } },
{ "type": "Feature", "properties": { "OBJECTID": 127, "ADDRESSPOS": "312062", "ADDRESS": "62B Lorong 4 Toa Payoh, #02-143, Singapore 312062", "DESCRIPTIO": "Voluntary Welfare Organisations", "NAME": "Care Corner Counselling Centre - MCP", "HYPERLINK": "http:\/\/www.carecorner.org.sg", "X_ADDR": 29998.7308, "Y_ADDR": 35335.9159 }, "geometry": { "type": "Point", "coordinates": [ 103.851278331381877, 1.335839928434756 ] } },
{ "type": "Feature", "properties": { "OBJECTID": 128, "ADDRESSPOS": "312062", "ADDRESS": "62B Lorong 4 Toa Payoh, #02-121, Singapore 312062", "DESCRIPTIO": "Voluntary Welfare Organisations", "NAME": "Care Corner CREST Service", "HYPERLINK": null, "X_ADDR": 29998.7308, "Y_ADDR": 35335.9159 }, "geometry": { "type": "Point", "coordinates": [ 103.851278331381877, 1.335839928434756 ] } },
{ "type": "Feature", "properties": { "OBJECTID": 129, "ADDRESSPOS": "310149", "ADDRESS": "149 Toa Payoh Lor 1, #01-973, Singapore 310149", "DESCRIPTIO": "Voluntary Welfare Organisations", "NAME": "Care Corner Educational Therapy Services", "HYPERLINK": null, "X_ADDR": 29162.1042, "Y_ADDR": 35108.6784 }, "geometry": { "type": "Point", "coordinates": [ 103.843760749804943, 1.333784915845176 ] } },
{ "type": "Feature", "properties": { "OBJECTID": 130, "ADDRESSPOS": "730718", "ADDRESS": "718 Woodlands Avenue 6, #01-658, Singapore 730718", "DESCRIPTIO": "Voluntary Welfare Organisations", "NAME": "Care Corner Family Service Centre (Admiralty)", "HYPERLINK": "http:\/\/www.carecorner.org.sg", "X_ADDR": 24415.2947, "Y_ADDR": 47029.8493 }, "geometry": { "type": "Point", "coordinates": [ 103.801106497210441, 1.441595504283966 ] } },
{ "type": "Feature", "properties": { "OBJECTID": 131, "ADDRESSPOS": "730718", "ADDRESS": "718 Woodlands Avenue 6, #01-658, Singapore 730718", "DESCRIPTIO": "Voluntary Welfare Organisations", "NAME": "Care Corner Family Service Centre (Admiralty) - Enhanced STEP-UP (Service A)", "HYPERLINK": "http:\/\/www.carecorner.org.sg", "X_ADDR": 24415.2947, "Y_ADDR": 47029.8493 }, "geometry": { "type": "Point", "coordinates": [ 103.801106497210441, 1.441595504283966 ] } },
{ "type": "Feature", "properties": { "OBJECTID": 132, "ADDRESSPOS": "730718", "ADDRESS": "718 Woodlands Avenue 6, #01-658, Singapore 730718", "DESCRIPTIO": "Voluntary Welfare Organisations", "NAME": "Care Corner Family Service Centre (Admiralty) - Enhanced STEP-UP (Service B)", "HYPERLINK": "http:\/\/www.carecorner.org.sg", "X_ADDR": 24415.2947, "Y_ADDR": 47029.8493 }, "geometry": { "type": "Point", "coordinates": [ 103.801106497210441, 1.441595504283966 ] } },
{ "type": "Feature", "properties": { "OBJECTID": 133, "ADDRESSPOS": "141088", "ADDRESS": "88 Tanglin Halt Road, #05-1, Singapore 141088", "DESCRIPTIO": "Voluntary Welfare Organisations", "NAME": "Care Corner Family Service Centre (Queenstown)", "HYPERLINK": "http:\/\/www.carecorner.org.sg", "X_ADDR": 24071.7822, "Y_ADDR": 31598.2958 }, "geometry": { "type": "Point", "coordinates": [ 103.798021747973308, 1.302038029100648 ] } },
{ "type": "Feature", "properties": { "OBJECTID": 134, "ADDRESSPOS": "522299", "ADDRESS": "299B Tampines Street 22, Singapore 522299", "DESCRIPTIO": "Voluntary Welfare Organisations", "NAME": "Care Corner Family Service Centre (Tampines)", "HYPERLINK": null, "X_ADDR": 41444.3184, "Y_ADDR": 36846.0348 }, "geometry": { "type": "Point", "coordinates": [ 103.954124138635308, 1.349493954569727 ] } },
{ "type": "Feature", "properties": { "OBJECTID": 135, "ADDRESSPOS": "536200", "ADDRESS": "8 New Industrial Road, #06-3, Singapore 536200", "DESCRIPTIO": "Voluntary Welfare Organisations", "NAME": "Care Corner Family Service Centre (Tampines) - Enhanced STEP-UP (Service A)", "HYPERLINK": "http:\/\/www.carecorner.org.sg", "X_ADDR": 33809.8443, "Y_ADDR": 35985.7318 }, "geometry": { "type": "Point", "coordinates": [ 103.885523508505074, 1.341716138644698 ] } },
{ "type": "Feature", "properties": { "OBJECTID": 136, "ADDRESSPOS": "310158", "ADDRESS": "158 Toa Payoh Lorong 1, #01-1522, Singapore 310158", "DESCRIPTIO": "Voluntary Welfare Organisations", "NAME": "Care Corner Family Service Centre (Toa Payoh)", "HYPERLINK": "http:\/\/www.carecorner.org.sg", "X_ADDR": 29306.1023, "Y_ADDR": 34852.2673 }, "geometry": { "type": "Point", "coordinates": [ 103.845054643089014, 1.331466018905277 ] } },
{ "type": "Feature", "properties": { "OBJECTID": 137, "ADDRESSPOS": "730345", "ADDRESS": "345 Woodlands Street 32, #01-198, Singapore 730345", "DESCRIPTIO": "Voluntary Welfare Organisations", "NAME": "Care Corner Family Service Centre (Woodlands)", "HYPERLINK": "http:\/\/www.carecorner.org.sg", "X_ADDR": 22091.7001, "Y_ADDR": 46005.7515 }, "geometry": { "type": "Point", "coordinates": [ 103.780226948066868, 1.432333546078823 ] } },
{ "type": "Feature", "properties": { "OBJECTID": 138, "ADDRESSPOS": "730345", "ADDRESS": "345 Woodlands Street 32, #01-198, Singapore 730345", "DESCRIPTIO": "Voluntary Welfare Organisations", "NAME": "Care Corner Family Service Centre (Woodlands) - Enhanced STEP-UP (Service A)", "HYPERLINK": "http:\/\/www.carecorner.org.sg", "X_ADDR": 22091.7001, "Y_ADDR": 46005.7515 }, "geometry": { "type": "Point", "coordinates": [ 103.780226948066868, 1.432333546078823 ] } },
{ "type": "Feature", "properties": { "OBJECTID": 139, "ADDRESSPOS": "730345", "ADDRESS": "345 Woodlands Street 32, #01-198, Singapore 730345", "DESCRIPTIO": "Voluntary Welfare Organisations", "NAME": "Care Corner Family Service Centre (Woodlands) - Enhanced STEP-UP (Service B)", "HYPERLINK": "http:\/\/www.carecorner.org.sg", "X_ADDR": 22091.7001, "Y_ADDR": 46005.7515 }, "geometry": { "type": "Point", "coordinates": [ 103.780226948066868, 1.432333546078823 ] } },
{ "type": "Feature", "properties": { "OBJECTID": 140, "ADDRESSPOS": "310005", "ADDRESS": "5 Toa Payoh Lorong 7, #01-131, Singapore 310005", "DESCRIPTIO": "Voluntary Welfare Organisations", "NAME": "Care Corner Senior Activity Centre (TP5)", "HYPERLINK": "http:\/\/www.carecorner.org.sg      http:\/\/www.call999.net\/care", "X_ADDR": 30501.6475, "Y_ADDR": 35647.6192 }, "geometry": { "type": "Point", "coordinates": [ 103.855797354252118, 1.338658824009646 ] } },
{ "type": "Feature", "properties": { "OBJECTID": 141, "ADDRESSPOS": "312062", "ADDRESS": "62B Lorong 4 Toa Payoh, #02-121, Singapore 312062", "DESCRIPTIO": "Voluntary Welfare Organisations", "NAME": "Care Corner Senior Activity Centre (TP62B)", "HYPERLINK": null, "X_ADDR": 29998.7308, "Y_ADDR": 35335.9159 }, "geometry": { "type": "Point", "coordinates": [ 103.851278331381877, 1.335839928434756 ] } },
{ "type": "Feature", "properties": { "OBJECTID": 142, "ADDRESSPOS": "310235", "ADDRESS": "235 Toa Payoh Lorong 8, #01-100, Singapore 310235", "DESCRIPTIO": "Voluntary Welfare Organisations", "NAME": "Care Corner Social Day Care Centre for The Elderly (Toa Payoh)", "HYPERLINK": "http:\/\/www.carecorner.org.sg", "X_ADDR": 30650.9501, "Y_ADDR": 35679.7826 }, "geometry": { "type": "Point", "coordinates": [ 103.857138928722492, 1.338949685625427 ] } },
{ "type": "Feature", "properties": { "OBJECTID": 143, "ADDRESSPOS": "730719", "ADDRESS": "719 Woodlands Ave 6, #01-628, Singapore 730719", "DESCRIPTIO": "Voluntary Welfare Organisations", "NAME": "Care Corner Student Care Centre (Admiralty)", "HYPERLINK": null, "X_ADDR": 24307.2379, "Y_ADDR": 47065.9044 }, "geometry": { "type": "Point", "coordinates": [ 103.800135496622175, 1.44192155943885 ] } },
{ "type": "Feature", "properties": { "OBJECTID": 144, "ADDRESSPOS": "738927", "ADDRESS": "31 Woodlands Centre Road, Singapore 738927", "DESCRIPTIO": "Voluntary Welfare Organisations", "NAME": "Care Corner Student Care Centre (Marsiling Pri Sch)", "HYPERLINK": null, "X_ADDR": 21359.012, "Y_ADDR": 46172.2386 }, "geometry": { "type": "Point", "coordinates": [ 103.773643019696664, 1.433839030375427 ] } },
{ "type": "Feature", "properties": { "OBJECTID": 145, "ADDRESSPOS": "730321", "ADDRESS": "321 Woodlands Street 32, #01-227, Singapore 730321", "DESCRIPTIO": "Voluntary Welfare Organisations", "NAME": "Care Corner Student Care Centre (Woodlands)", "HYPERLINK": null, "X_ADDR": 21957.474, "Y_ADDR": 45954.5625 }, "geometry": { "type": "Point", "coordinates": [ 103.779020810679881, 1.431870583056589 ] } },
{ "type": "Feature", "properties": { "OBJECTID": 146, "ADDRESSPOS": "560346", "ADDRESS": "346 Ang Mo Kio Ave 3, #01-2280, Singapore 560346", "DESCRIPTIO": "Voluntary Welfare Organisations", "NAME": "Care Corner Teck Ghee Youth Centre - Enhanced STEP-UP (Service A)", "HYPERLINK": "http:\/\/www.carecorner.org.sg", "X_ADDR": 29818.8614, "Y_ADDR": 38792.0368 }, "geometry": { "type": "Point", "coordinates": [ 103.849662310469483, 1.367095865505719 ] } },
{ "type": "Feature", "properties": { "OBJECTID": 147, "ADDRESSPOS": "310158", "ADDRESS": "158 Toa Payoh Lorong 1, #01-1522, Singapore 310158", "DESCRIPTIO": "Voluntary Welfare Organisations", "NAME": "Care Express", "HYPERLINK": "http:\/\/www.carecorner.org.sg", "X_ADDR": 29306.1023, "Y_ADDR": 34852.2673 }, "geometry": { "type": "Point", "coordinates": [ 103.845054643089014, 1.331466018905277 ] } },
{ "type": "Feature", "properties": { "OBJECTID": 148, "ADDRESSPOS": "829685", "ADDRESS": "207J Ponggol 17th Avenue, Singapore 829685", "DESCRIPTIO": "Voluntary Welfare Organisations", "NAME": "Care Residential Rehabilitation Programme", "HYPERLINK": "http:\/\/www.christian-care-services.org", "X_ADDR": 35812.8657, "Y_ADDR": 44136.796 }, "geometry": { "type": "Point", "coordinates": [ 103.903524005789293, 1.41543093720903 ] } },
{ "type": "Feature", "properties": { "OBJECTID": 149, "ADDRESSPOS": "209943", "ADDRESS": "1 Beatty Road, Singapore 209943", "DESCRIPTIO": "Voluntary Welfare Organisations", "NAME": "CareerLink Plus (CLP)", "HYPERLINK": "http:\/\/www.sinda.org.sg", "X_ADDR": 30782.0845, "Y_ADDR": 32953.1433 }, "geometry": { "type": "Point", "coordinates": [ 103.858317002113083, 1.314290915334806 ] } },
{ "type": "Feature", "properties": { "OBJECTID": 150, "ADDRESSPOS": "319518", "ADDRESS": "623 Toa Payoh Lorong 4, Singapore 319518", "DESCRIPTIO": "Voluntary Welfare Organisations", "NAME": "Caregiver Support (Eldercare)?", "HYPERLINK": "http:\/\/www.hopecsc.org\/contact-us.html", "X_ADDR": 30234.1864, "Y_ADDR": 35042.0123 }, "geometry": { "type": "Point", "coordinates": [ 103.85339401542457, 1.333181952160995 ] } },
{ "type": "Feature", "properties": { "OBJECTID": 151, "ADDRESSPOS": "518313", "ADDRESS": "84 Riverina Crescent, Singapore 518313", "DESCRIPTIO": "Voluntary Welfare Organisations", "NAME": "Caregiver Support Group", "HYPERLINK": "http:\/\/www.cami.org.sg", "X_ADDR": 40646.9139, "Y_ADDR": 40251.3914 }, "geometry": { "type": "Point", "coordinates": [ 103.94696041864033, 1.380291071237406 ] } },
{ "type": "Feature", "properties": { "OBJECTID": 152, "ADDRESSPOS": "387908", "ADDRESS": "Arab Association of Singapore, Singapore 387908", "DESCRIPTIO": "Voluntary Welfare Organisations", "NAME": "Caregiver Support Group", "HYPERLINK": null, "X_ADDR": 34246.6714, "Y_ADDR": 33141.0162 }, "geometry": { "type": "Point", "coordinates": [ 103.889448079745932, 1.315989462079885 ] } },
{ "type": "Feature", "properties": { "OBJECTID": 153, "ADDRESSPOS": "152119", "ADDRESS": "119 Bukit Merah View, #01-85, Singapore 152119", "DESCRIPTIO": "Voluntary Welfare Organisations", "NAME": "Caregiver Training", "HYPERLINK": "http:\/\/www.apexrehab.org.sg", "X_ADDR": 26610.1259, "Y_ADDR": 29551.4791 }, "geometry": { "type": "Point", "coordinates": [ 103.82083001541929, 1.28352755723431 ] } },
{ "type": "Feature", "properties": { "OBJECTID": 154, "ADDRESSPOS": "319194", "ADDRESS": "93 Toa Payoh Central, #07-1, Singapore 319194", "DESCRIPTIO": "Voluntary Welfare Organisations", "NAME": "Caregiver Training", "HYPERLINK": "http:\/\/www.hnf.org.sg", "X_ADDR": 29879.3143, "Y_ADDR": 35235.7211 }, "geometry": { "type": "Point", "coordinates": [ 103.850205299807357, 1.334933808972527 ] } },
{ "type": "Feature", "properties": { "OBJECTID": 155, "ADDRESSPOS": "328127", "ADDRESS": "705 Serangoon Road, Singapore 328127", "DESCRIPTIO": "Voluntary Welfare Organisations", "NAME": "Caregiver Training Grant", "HYPERLINK": "http:\/\/www.kwsh.org.sg", "X_ADDR": 30821.3819, "Y_ADDR": 33238.8862 }, "geometry": { "type": "Point", "coordinates": [ 103.858670134072426, 1.316875070297205 ] } },
{ "type": "Feature", "properties": { "OBJECTID": 156, "ADDRESSPOS": "248371", "ADDRESS": "491 River Valley Road, #04-4, Singapore 248371", "DESCRIPTIO": "Voluntary Welfare Organisations", "NAME": "Caregivers Education Programme", "HYPERLINK": "http:\/\/www.cal.org.sg\/", "X_ADDR": 27290.2098, "Y_ADDR": 30600.8654 }, "geometry": { "type": "Point", "coordinates": [ 103.826940812301231, 1.293017861115588 ] } },
{ "type": "Feature", "properties": { "OBJECTID": 157, "ADDRESSPOS": "248371", "ADDRESS": "491 River Valley Road, #04-4, Singapore 248371", "DESCRIPTIO": "Voluntary Welfare Organisations", "NAME": "Caregivers Support Groups", "HYPERLINK": "http:\/\/www.cal.org.sg\/", "X_ADDR": 27290.2098, "Y_ADDR": 30600.8654 }, "geometry": { "type": "Point", "coordinates": [ 103.826940812301231, 1.293017861115588 ] } },
{ "type": "Feature", "properties": { "OBJECTID": 158, "ADDRESSPOS": "797635", "ADDRESS": "7 Fernvale Road, Singapore 797635", "DESCRIPTIO": "Voluntary Welfare Organisations", "NAME": "Caregivers Support Services", "HYPERLINK": "http:\/\/www.minds.org.sg", "X_ADDR": 32627.9083, "Y_ADDR": 41254.6176 }, "geometry": { "type": "Point", "coordinates": [ 103.874903926606919, 1.389366253996587 ] } },
{ "type": "Feature", "properties": { "OBJECTID": 159, "ADDRESSPOS": "248371", "ADDRESS": "491 River Valley Road, #04-4, Singapore 248371", "DESCRIPTIO": "Voluntary Welfare Organisations", "NAME": "Caregivers-to-Caregivers Support Centre", "HYPERLINK": "http:\/\/www.cal.org.sg\/", "X_ADDR": 27290.2098, "Y_ADDR": 30600.8654 }, "geometry": { "type": "Point", "coordinates": [ 103.826940812301231, 1.293017861115588 ] } },
{ "type": "Feature", "properties": { "OBJECTID": 160, "ADDRESSPOS": "409045", "ADDRESS": "247 Paya Lebar Road, #03-2, Singapore 409045", "DESCRIPTIO": "Voluntary Welfare Organisations", "NAME": "CARElderly Senior Activity Centre", "HYPERLINK": "http:\/\/www.carecom.org.sg", "X_ADDR": 34182.9078, "Y_ADDR": 34834.5839 }, "geometry": { "type": "Point", "coordinates": [ 103.888875472511046, 1.331305495022973 ] } },
{ "type": "Feature", "properties": { "OBJECTID": 161, "ADDRESSPOS": "370012", "ADDRESS": "12 Merpati Road, #01-127, Singapore 370012", "DESCRIPTIO": "Voluntary Welfare Organisations", "NAME": "CARElderly Senior Activity Centre (Merpati)", "HYPERLINK": null, "X_ADDR": 33680.5809, "Y_ADDR": 34439.3102 }, "geometry": { "type": "Point", "coordinates": [ 103.884361711509882, 1.327730879240358 ] } },
{ "type": "Feature", "properties": { "OBJECTID": 162, "ADDRESSPOS": "600316", "ADDRESS": "316 Jurong East Street 32, #01-279, Singapore 600316", "DESCRIPTIO": "Voluntary Welfare Organisations", "NAME": "Case Management", "HYPERLINK": "http:\/\/www.lovingheartj.org\/", "X_ADDR": 16733.2355, "Y_ADDR": 36460.3125 }, "geometry": { "type": "Point", "coordinates": [ 103.732079816514656, 1.346006522918984 ] } },
{ "type": "Feature", "properties": { "OBJECTID": 163, "ADDRESSPOS": "522299", "ADDRESS": "299B Tampines Street 22, Singapore 522299", "DESCRIPTIO": "Voluntary Welfare Organisations", "NAME": "Care Corner FSC (Tampines) - MCP", "HYPERLINK": null, "X_ADDR": 41444.3184, "Y_ADDR": 36846.0348 }, "geometry": { "type": "Point", "coordinates": [ 103.954124138635308, 1.349493954569727 ] } },
{ "type": "Feature", "properties": { "OBJECTID": 164, "ADDRESSPOS": "522299", "ADDRESS": "299B Tampines Street 22, Singapore 522299", "DESCRIPTIO": "Voluntary Welfare Organisations", "NAME": "Care Corner FSC (Tampines) - SPMF", "HYPERLINK": null, "X_ADDR": 41444.3184, "Y_ADDR": 36846.0348 }, "geometry": { "type": "Point", "coordinates": [ 103.954124138635308, 1.349493954569727 ] } },
{ "type": "Feature", "properties": { "OBJECTID": 165, "ADDRESSPOS": "310158", "ADDRESS": "158 Toa Payoh Lorong 1, #01-1522, Singapore 310158", "DESCRIPTIO": "Voluntary Welfare Organisations", "NAME": "Care Corner FSC (Toa Payoh) - MCP", "HYPERLINK": "http:\/\/www.carecorner.org.sg", "X_ADDR": 29306.1023, "Y_ADDR": 34852.2673 }, "geometry": { "type": "Point", "coordinates": [ 103.845054643089014, 1.331466018905277 ] } },
{ "type": "Feature", "properties": { "OBJECTID": 166, "ADDRESSPOS": "310158", "ADDRESS": "158 Toa Payoh Lorong 1, #01-1522, Singapore 310158", "DESCRIPTIO": "Voluntary Welfare Organisations", "NAME": "Care Corner FSC (Toa Payoh) - SPMF", "HYPERLINK": "http:\/\/www.carecorner.org.sg", "X_ADDR": 29306.1023, "Y_ADDR": 34852.2673 }, "geometry": { "type": "Point", "coordinates": [ 103.845054643089014, 1.331466018905277 ] } },
{ "type": "Feature", "properties": { "OBJECTID": 167, "ADDRESSPOS": "409962", "ADDRESS": "18 Arumugam Road, #05-1, Singapore 409962", "DESCRIPTIO": "Voluntary Welfare Organisations", "NAME": "Chai Chee Eldercare", "HYPERLINK": "http:\/\/www.bgss.org.sg\/", "X_ADDR": 34474.1778, "Y_ADDR": 34215.9244 }, "geometry": { "type": "Point", "coordinates": [ 103.891492565969273, 1.325710500618928 ] } },
{ "type": "Feature", "properties": { "OBJECTID": 168, "ADDRESSPOS": "579837", "ADDRESS": "9 Bishan Place, #08-2, Singapore 579837", "DESCRIPTIO": "Voluntary Welfare Organisations", "NAME": "Changi Senior Ambassador Programme", "HYPERLINK": "http:\/\/www.rsvp.org.sg", "X_ADDR": 29687.0319, "Y_ADDR": 36928.1369 }, "geometry": { "type": "Point", "coordinates": [ 103.848477626073375, 1.350239427297009 ] } },
{ "type": "Feature", "properties": { "OBJECTID": 169, "ADDRESSPOS": "569767", "ADDRESS": "18 Ang Mo Kio Ave 9, Singapore 569767", "DESCRIPTIO": "Voluntary Welfare Organisations", "NAME": "Chaoyang School", "HYPERLINK": null, "X_ADDR": 28942.307, "Y_ADDR": 40581.3069 }, "geometry": { "type": "Point", "coordinates": [ 103.841785918453908, 1.38327742528716 ] } },
{ "type": "Feature", "properties": { "OBJECTID": 170, "ADDRESSPOS": "569767", "ADDRESS": "18 Ang Mo Kio Ave 9, Singapore 569767", "DESCRIPTIO": "Voluntary Welfare Organisations", "NAME": "Chaoyang School - REACH Network", "HYPERLINK": null, "X_ADDR": 28942.307, "Y_ADDR": 40581.3069 }, "geometry": { "type": "Point", "coordinates": [ 103.841785918453908, 1.38327742528716 ] } },
{ "type": "Feature", "properties": { "OBJECTID": 171, "ADDRESSPOS": "569767", "ADDRESS": "18 Ang Mo Kio Ave 9, Singapore 569767", "DESCRIPTIO": "Voluntary Welfare Organisations", "NAME": "Chaoyang School - SPMF", "HYPERLINK": null, "X_ADDR": 28942.307, "Y_ADDR": 40581.3069 }, "geometry": { "type": "Point", "coordinates": [ 103.841785918453908, 1.38327742528716 ] } },
{ "type": "Feature", "properties": { "OBJECTID": 172, "ADDRESSPOS": "141088", "ADDRESS": "88 Tanglin Halt Road, #05-1, Singapore 141088", "DESCRIPTIO": "Voluntary Welfare Organisations", "NAME": "Chatter Point Drop In Centre (Queenstown)", "HYPERLINK": "http:\/\/www.carecorner.org.sg", "X_ADDR": 24071.7822, "Y_ADDR": 31598.2958 }, "geometry": { "type": "Point", "coordinates": [ 103.798021747973308, 1.302038029100648 ] } },
{ "type": "Feature", "properties": { "OBJECTID": 173, "ADDRESSPOS": "828826", "ADDRESS": "50 Punggol East, Singapore 828826", "DESCRIPTIO": "Voluntary Welfare Organisations", "NAME": "Chatterbox", "HYPERLINK": "http:\/\/www.socialinnovationpark.org\/", "X_ADDR": 37285.8107, "Y_ADDR": 41840.629 }, "geometry": { "type": "Point", "coordinates": [ 103.916758958730583, 1.394664810152911 ] } },
{ "type": "Feature", "properties": { "OBJECTID": 174, "ADDRESSPOS": "468854", "ADDRESS": "1 Jalan Bilal, Singapore 468854", "DESCRIPTIO": "Voluntary Welfare Organisations", "NAME": "Chee Hoon Kog Child Care Centre", "HYPERLINK": null, "X_ADDR": 41456.1771, "Y_ADDR": 33790.7457 }, "geometry": { "type": "Point", "coordinates": [ 103.954229345970234, 1.321863060778548 ] } },
{ "type": "Feature", "properties": { "OBJECTID": 175, "ADDRESSPOS": "556057", "ADDRESS": "202 Serangoon Garden Way, Singapore 556057", "DESCRIPTIO": "Voluntary Welfare Organisations", "NAME": "Chen Su Lan Methodist Children's Home The", "HYPERLINK": "http:\/\/www.cslmch.org.sg", "X_ADDR": 31175.528, "Y_ADDR": 38945.5951 }, "geometry": { "type": "Point", "coordinates": [ 103.861852916082256, 1.368484477217719 ] } },
{ "type": "Feature", "properties": { "OBJECTID": 176, "ADDRESSPOS": "409032", "ADDRESS": "180 Paya Lebar Road, #010-1, Singapore 409032", "DESCRIPTIO": "Voluntary Welfare Organisations", "NAME": "Chen Su Lan Trust", "HYPERLINK": null, "X_ADDR": 34306.3707, "Y_ADDR": 34784.6895 }, "geometry": { "type": "Point", "coordinates": [ 103.889984846136315, 1.33085424256696 ] } },
{ "type": "Feature", "properties": { "OBJECTID": 177, "ADDRESSPOS": "409966", "ADDRESS": "30 Arumugam Road, Singapore 409966", "DESCRIPTIO": "Voluntary Welfare Organisations", "NAME": "Cheng Hong Chinese Medical Centre", "HYPERLINK": null, "X_ADDR": 34548.387, "Y_ADDR": 34220.7279 }, "geometry": { "type": "Point", "coordinates": [ 103.892159376522415, 1.325753924994463 ] } },
{ "type": "Feature", "properties": { "OBJECTID": 178, "ADDRESSPOS": "400012", "ADDRESS": "12 Eunos Crescent, #01-2767, Singapore 400012", "DESCRIPTIO": "Voluntary Welfare Organisations", "NAME": "Cheng Hong Chinese Medical Clinic", "HYPERLINK": "http:\/\/www.chenghongwelfare.org", "X_ADDR": 35883.0118, "Y_ADDR": 33829.7453 }, "geometry": { "type": "Point", "coordinates": [ 103.904151594842233, 1.322217703434242 ] } },
{ "type": "Feature", "properties": { "OBJECTID": 179, "ADDRESSPOS": "400012", "ADDRESS": "12 Eunos Crescent, #01-2767, Singapore 400012", "DESCRIPTIO": "Voluntary Welfare Organisations", "NAME": "Cheng Hong Welfare Service Society - Financial Assistance", "HYPERLINK": "http:\/\/www.chenghongwelfare.org", "X_ADDR": 35883.0118, "Y_ADDR": 33829.7453 }, "geometry": { "type": "Point", "coordinates": [ 103.904151594842233, 1.322217703434242 ] } },
{ "type": "Feature", "properties": { "OBJECTID": 180, "ADDRESSPOS": "556056", "ADDRESS": "159 Serangoon Garden Way, Singapore 556056", "DESCRIPTIO": "Voluntary Welfare Organisations", "NAME": "Cheshire Homes Far Eastern Regional Council The", "HYPERLINK": null, "X_ADDR": 31089.2843, "Y_ADDR": 38665.0582 }, "geometry": { "type": "Point", "coordinates": [ 103.861077926256769, 1.365947411975838 ] } },
{ "type": "Feature", "properties": { "OBJECTID": 181, "ADDRESSPOS": "139949", "ADDRESS": "55 Ayer Rajah Crescent, #06-23, Singapore 139949", "DESCRIPTIO": "Voluntary Welfare Organisations", "NAME": "CHF Community", "HYPERLINK": null, "X_ADDR": 22851.3865, "Y_ADDR": 30752.3489 }, "geometry": { "type": "Point", "coordinates": [ 103.787056077275736, 1.29438740783388 ] } },
{ "type": "Feature", "properties": { "OBJECTID": 182, "ADDRESSPOS": "569739", "ADDRESS": "5 Ang Mo Kio Ave 10, Singapore 569739", "DESCRIPTIO": "Voluntary Welfare Organisations", "NAME": "ARC WeCAN EIP", "HYPERLINK": "http:\/\/www.autism.org.sg", "X_ADDR": 30310.496, "Y_ADDR": 37930.5144 }, "geometry": { "type": "Point", "coordinates": [ 103.854079920455504, 1.359304531259909 ] } },
{ "type": "Feature", "properties": { "OBJECTID": 183, "ADDRESSPOS": "569739", "ADDRESS": "5 Ang Mo Kio Ave 10, Singapore 569739", "DESCRIPTIO": "Voluntary Welfare Organisations", "NAME": "ARC(S) Employability and Employment Centre", "HYPERLINK": "http:\/\/www.autism.org.sg", "X_ADDR": 30310.496, "Y_ADDR": 37930.5144 }, "geometry": { "type": "Point", "coordinates": [ 103.854079920455504, 1.359304531259909 ] } },
{ "type": "Feature", "properties": { "OBJECTID": 184, "ADDRESSPOS": "319637", "ADDRESS": "1 Lor 2 Toa Payoh, #02-8, Singapore 319637", "DESCRIPTIO": "Voluntary Welfare Organisations", "NAME": "Art & Drama Therapy", "HYPERLINK": "http:\/\/www.milk.org.sg", "X_ADDR": 29574.6111, "Y_ADDR": 35828.8241 }, "geometry": { "type": "Point", "coordinates": [ 103.847467396154897, 1.340297639327606 ] } },
{ "type": "Feature", "properties": { "OBJECTID": 185, "ADDRESSPOS": "530603", "ADDRESS": "603 Hougang Avenue 4, #01-221, Singapore 530603", "DESCRIPTIO": "Voluntary Welfare Organisations", "NAME": "Arts & Culture Learning Centre", "HYPERLINK": null, "X_ADDR": 33869.7152, "Y_ADDR": 39291.2 }, "geometry": { "type": "Point", "coordinates": [ 103.886062131398901, 1.371609591493893 ] } },
{ "type": "Feature", "properties": { "OBJECTID": 186, "ADDRESSPOS": "576151", "ADDRESS": "1 Pemimpin Drive, #011-4, Singapore 576151", "DESCRIPTIO": "Voluntary Welfare Organisations", "NAME": "Arts and Crafts", "HYPERLINK": null, "X_ADDR": 29065.7103, "Y_ADDR": 37110.3476 }, "geometry": { "type": "Point", "coordinates": [ 103.842894665014313, 1.351887304575878 ] } },
{ "type": "Feature", "properties": { "OBJECTID": 187, "ADDRESSPOS": "460133", "ADDRESS": "133 Bedok North Avenue 3, #01-138, Singapore 460133", "DESCRIPTIO": "Voluntary Welfare Organisations", "NAME": "Arts in Learning Rehabilitation and Training (ALERT)", "HYPERLINK": "http:\/\/www.vsa.org.sg", "X_ADDR": 39397.8691, "Y_ADDR": 34420.8776 }, "geometry": { "type": "Point", "coordinates": [ 103.935734631926948, 1.327562578376726 ] } },
{ "type": "Feature", "properties": { "OBJECTID": 188, "ADDRESSPOS": "759642", "ADDRESS": "30 Durban Road, Singapore 759642", "DESCRIPTIO": "Voluntary Welfare Organisations", "NAME": "Ashram Halfway House (AHWH)", "HYPERLINK": "http:\/\/www.heb.gov.sg", "X_ADDR": 27606.2095, "Y_ADDR": 48314.5972 }, "geometry": { "type": "Point", "coordinates": [ 103.829779968415011, 1.453214524370777 ] } },
{ "type": "Feature", "properties": { "OBJECTID": 189, "ADDRESSPOS": "49389", "ADDRESS": "33A Circular Road, Singapore 49389", "DESCRIPTIO": "Voluntary Welfare Organisations", "NAME": "Asian Venture Philanthropy Network (AVPN)", "HYPERLINK": "http:\/\/www.avpn.asia\/", "X_ADDR": 29761.8443, "Y_ADDR": 29906.1146 }, "geometry": { "type": "Point", "coordinates": [ 103.84914946100605, 1.286734736766299 ] } },
{ "type": "Feature", "properties": { "OBJECTID": 190, "ADDRESSPOS": "400322", "ADDRESS": "322 Ubi Ave 1, #01-591, Singapore 400322", "DESCRIPTIO": "Voluntary Welfare Organisations", "NAME": "As-Salaam PPIS Family Support Centre - SPMF", "HYPERLINK": null, "X_ADDR": 35958.9228, "Y_ADDR": 34459.4933 }, "geometry": { "type": "Point", "coordinates": [ 103.904833859024521, 1.327912897407783 ] } },
{ "type": "Feature", "properties": { "OBJECTID": 191, "ADDRESSPOS": "400322", "ADDRESS": "322 Ubi Ave 1, #01-591, Singapore 400322", "DESCRIPTIO": "Voluntary Welfare Organisations", "NAME": "As-Salaam PPIS Family Support Centre (Programme for Remarriages and Stepfamilies)", "HYPERLINK": null, "X_ADDR": 35958.9228, "Y_ADDR": 34459.4933 }, "geometry": { "type": "Point", "coordinates": [ 103.904833859024521, 1.327912897407783 ] } },
{ "type": "Feature", "properties": { "OBJECTID": 192, "ADDRESSPOS": "648886", "ADDRESS": "1 Jurong West Central 2, #05-1, Singapore 648886", "DESCRIPTIO": "Voluntary Welfare Organisations", "NAME": "Assessment", "HYPERLINK": "http:\/\/www.das.org.sg", "X_ADDR": 13882.0898, "Y_ADDR": 35777.4923 }, "geometry": { "type": "Point", "coordinates": [ 103.706460886825951, 1.339830148058246 ] } },
{ "type": "Feature", "properties": { "OBJECTID": 193, "ADDRESSPOS": "574623", "ADDRESS": "820 Thomson Road, Singapore 574623", "DESCRIPTIO": "Voluntary Welfare Organisations", "NAME": "Assisi Home & Hospice Home Care Centre - Hospice Home Care", "HYPERLINK": "http:\/\/www.assisihospice.org.sg", "X_ADDR": 28474.4041, "Y_ADDR": 35995.4858 }, "geometry": { "type": "Point", "coordinates": [ 103.837581385494047, 1.341804906816209 ] } },
{ "type": "Feature", "properties": { "OBJECTID": 194, "ADDRESSPOS": "574623", "ADDRESS": "820 Thomson Road, Singapore 574623", "DESCRIPTIO": "Voluntary Welfare Organisations", "NAME": "Assisi Home & Hospice Home Care Centre - Hospice In-patient Care", "HYPERLINK": "http:\/\/www.assisihospice.org.sg", "X_ADDR": 28474.4041, "Y_ADDR": 35995.4858 }, "geometry": { "type": "Point", "coordinates": [ 103.837581385494047, 1.341804906816209 ] } },
{ "type": "Feature", "properties": { "OBJECTID": 195, "ADDRESSPOS": "574623", "ADDRESS": "820 Thomson Road, Singapore 574623", "DESCRIPTIO": "Voluntary Welfare Organisations", "NAME": "Assisi Hospice - Day Care", "HYPERLINK": "http:\/\/www.assisihospice.org.sg", "X_ADDR": 28474.4041, "Y_ADDR": 35995.4858 }, "geometry": { "type": "Point", "coordinates": [ 103.837581385494047, 1.341804906816209 ] } },
{ "type": "Feature", "properties": { "OBJECTID": 196, "ADDRESSPOS": "158828", "ADDRESS": "141 Redhill Road, Singapore 158828", "DESCRIPTIO": "Voluntary Welfare Organisations", "NAME": "Assistance for Caregivers", "HYPERLINK": "http:\/\/www.sgenable.sg", "X_ADDR": 25893.5089, "Y_ADDR": 29903.0185 }, "geometry": { "type": "Point", "coordinates": [ 103.81439090828917, 1.286706715293608 ] } },
{ "type": "Feature", "properties": { "OBJECTID": 197, "ADDRESSPOS": "187967", "ADDRESS": "96 Waterloo Street, Singapore 187967", "DESCRIPTIO": "Voluntary Welfare Organisations", "NAME": "Assistance Scheme - Drop-in Centre", "HYPERLINK": "http:\/\/www.scwo.org.sg", "X_ADDR": 30034.3765, "Y_ADDR": 31317.3008 }, "geometry": { "type": "Point", "coordinates": [ 103.851598363897139, 1.299496992547539 ] } },
{ "type": "Feature", "properties": { "OBJECTID": 198, "ADDRESSPOS": "187967", "ADDRESS": "96 Waterloo Street, Singapore 187967", "DESCRIPTIO": "Voluntary Welfare Organisations", "NAME": "Assistance Scheme - Financial Assistance", "HYPERLINK": "http:\/\/www.scwo.org.sg", "X_ADDR": 30034.3765, "Y_ADDR": 31317.3008 }, "geometry": { "type": "Point", "coordinates": [ 103.851598363897139, 1.299496992547539 ] } },
{ "type": "Feature", "properties": { "OBJECTID": 199, "ADDRESSPOS": "298104", "ADDRESS": "47 Toa Payoh Rise, Singapore 298104", "DESCRIPTIO": "Voluntary Welfare Organisations", "NAME": "Assistive Devices Centre (ADC)", "HYPERLINK": "http:\/\/www.savh.org.sg", "X_ADDR": 28729.8925, "Y_ADDR": 35612.1693 }, "geometry": { "type": "Point", "coordinates": [ 103.839877092028232, 1.338338323355666 ] } },
{ "type": "Feature", "properties": { "OBJECTID": 200, "ADDRESSPOS": "319637", "ADDRESS": "1 Lor 2 Toa Payoh, #02-8, Singapore 319637", "DESCRIPTIO": "Voluntary Welfare Organisations", "NAME": "Assistive Technology Fund", "HYPERLINK": "http:\/\/www.milk.org.sg", "X_ADDR": 29574.6111, "Y_ADDR": 35828.8241 }, "geometry": { "type": "Point", "coordinates": [ 103.847467396154897, 1.340297639327606 ] } },
{ "type": "Feature", "properties": { "OBJECTID": 201, "ADDRESSPOS": "90023", "ADDRESS": "23 Telok Blangah Crescent, #01-40, Singapore 90023", "DESCRIPTIO": "Voluntary Welfare Organisations", "NAME": "Assistive Technology Research & Development", "HYPERLINK": null, "X_ADDR": 26611.1804, "Y_ADDR": 28728.047 }, "geometry": { "type": "Point", "coordinates": [ 103.820839527448527, 1.276080725281321 ] } },
{ "type": "Feature", "properties": { "OBJECTID": 202, "ADDRESSPOS": "530018", "ADDRESS": "18 Hougang Ave 3, #01-159, Singapore 530018", "DESCRIPTIO": "Voluntary Welfare Organisations", "NAME": "Association For Early Childhood Educators (Singapore)", "HYPERLINK": "http:\/\/www.aeces.org\/", "X_ADDR": 34522.7178, "Y_ADDR": 38363.1567 }, "geometry": { "type": "Point", "coordinates": [ 103.891929618150158, 1.363216565333216 ] } },
{ "type": "Feature", "properties": { "OBJECTID": 203, "ADDRESSPOS": "350139", "ADDRESS": "139 Potong Pasir Avenue 3, #01-132, Singapore 350139", "DESCRIPTIO": "Voluntary Welfare Organisations", "NAME": "Association for Psychiatric Rehabilitation (Singapore)", "HYPERLINK": "http:\/\/www.aprs.org.sg", "X_ADDR": 31649.3685, "Y_ADDR": 35052.4801 }, "geometry": { "type": "Point", "coordinates": [ 103.866110231603045, 1.333276481013537 ] } },
{ "type": "Feature", "properties": { "OBJECTID": 204, "ADDRESSPOS": "152119", "ADDRESS": "119 Bukit Merah View, #01-85, Singapore 152119", "DESCRIPTIO": "Voluntary Welfare Organisations", "NAME": "Association Of Apex Clubs Of Singapore", "HYPERLINK": "http:\/\/www.apexsg.org\/", "X_ADDR": 26610.1259, "Y_ADDR": 29551.4791 }, "geometry": { "type": "Point", "coordinates": [ 103.82083001541929, 1.28352755723431 ] } },
{ "type": "Feature", "properties": { "OBJECTID": 205, "ADDRESSPOS": "679697", "ADDRESS": "30 Cashew Road, Singapore 679697", "DESCRIPTIO": "Voluntary Welfare Organisations", "NAME": "Assumption Pathway School - SPMF", "HYPERLINK": null, "X_ADDR": 20503.7073, "Y_ADDR": 39076.8479 }, "geometry": { "type": "Point", "coordinates": [ 103.765959135281875, 1.369670699219389 ] } },
{ "type": "Feature", "properties": { "OBJECTID": 206, "ADDRESSPOS": "679697", "ADDRESS": "30 Cashew Road, Singapore 679697", "DESCRIPTIO": "Voluntary Welfare Organisations", "NAME": "Assumption Pathway School (APS)", "HYPERLINK": null, "X_ADDR": 20503.7073, "Y_ADDR": 39076.8479 }, "geometry": { "type": "Point", "coordinates": [ 103.765959135281875, 1.369670699219389 ] } },
{ "type": "Feature", "properties": { "OBJECTID": 207, "ADDRESSPOS": "247672", "ADDRESS": "354 Tanglin Road, #01-11-Dec, Singapore 247672", "DESCRIPTIO": "Voluntary Welfare Organisations", "NAME": "Athlete Leadership programme", "HYPERLINK": "http:\/\/www.specialolympics.org", "X_ADDR": 25864.9804, "Y_ADDR": 30848.046 }, "geometry": { "type": "Point", "coordinates": [ 103.814134504117675, 1.295253209579401 ] } },
{ "type": "Feature", "properties": { "OBJECTID": 208, "ADDRESSPOS": "322002", "ADDRESS": "2 St George's Road, #01-65, Singapore 322002", "DESCRIPTIO": "Voluntary Welfare Organisations", "NAME": "Athlete Leadership Programs (ALPs)", "HYPERLINK": "http:\/\/www.specialolympics.org.sg", "X_ADDR": 31045.7889, "Y_ADDR": 33963.2213 }, "geometry": { "type": "Point", "coordinates": [ 103.860686616826683, 1.32342567783662 ] } },
{ "type": "Feature", "properties": { "OBJECTID": 209, "ADDRESSPOS": "409074", "ADDRESS": "11 Jalan Ubi Block 5, #01-41, Singapore 409074", "DESCRIPTIO": "Voluntary Welfare Organisations", "NAME": "Atypical Theft Offender (ATO)", "HYPERLINK": "http:\/\/www.wecare.org.sg", "X_ADDR": 35368.6015, "Y_ADDR": 33322.2896 }, "geometry": { "type": "Point", "coordinates": [ 103.899529228871089, 1.31762858576771 ] } },
{ "type": "Feature", "properties": { "OBJECTID": 210, "ADDRESSPOS": "169361", "ADDRESS": "47A Kampong Bahru Road, Singapore 169361", "DESCRIPTIO": "Voluntary Welfare Organisations", "NAME": "Australian & New Zealand Association The", "HYPERLINK": "http:\/\/www.anza.org.sg", "X_ADDR": 28322.1228, "Y_ADDR": 28802.4997 }, "geometry": { "type": "Point", "coordinates": [ 103.836212972378391, 1.276754078329727 ] } },
{ "type": "Feature", "properties": { "OBJECTID": 211, "ADDRESSPOS": "130005", "ADDRESS": "5 Dover Crescent, #01-22, Singapore 130005", "DESCRIPTIO": "Voluntary Welfare Organisations", "NAME": "AWARE Befrienders Service", "HYPERLINK": "http:\/\/www.aware.org.sg", "X_ADDR": 22359.6259, "Y_ADDR": 31821.9182 }, "geometry": { "type": "Point", "coordinates": [ 103.782637204549559, 1.304060127355856 ] } },
{ "type": "Feature", "properties": { "OBJECTID": 212, "ADDRESSPOS": "130005", "ADDRESS": "5 Dover Crescent, #01-22, Singapore 130005", "DESCRIPTIO": "Voluntary Welfare Organisations", "NAME": "AWARE Counselling", "HYPERLINK": "http:\/\/www.aware.org.sg", "X_ADDR": 22359.6259, "Y_ADDR": 31821.9182 }, "geometry": { "type": "Point", "coordinates": [ 103.782637204549559, 1.304060127355856 ] } },
{ "type": "Feature", "properties": { "OBJECTID": 213, "ADDRESSPOS": "130005", "ADDRESS": "5 Dover Crescent, #01-22, Singapore 130005", "DESCRIPTIO": "Voluntary Welfare Organisations", "NAME": "AWARE Helpline", "HYPERLINK": "http:\/\/www.aware.org.sg", "X_ADDR": 22359.6259, "Y_ADDR": 31821.9182 }, "geometry": { "type": "Point", "coordinates": [ 103.782637204549559, 1.304060127355856 ] } },
{ "type": "Feature", "properties": { "OBJECTID": 214, "ADDRESSPOS": "130005", "ADDRESS": "5 Dover Crescent, #01-22, Singapore 130005", "DESCRIPTIO": "Voluntary Welfare Organisations", "NAME": "AWARE Legal Clinic", "HYPERLINK": "http:\/\/www.aware.org.sg", "X_ADDR": 22359.6259, "Y_ADDR": 31821.9182 }, "geometry": { "type": "Point", "coordinates": [ 103.782637204549559, 1.304060127355856 ] } },
{ "type": "Feature", "properties": { "OBJECTID": 215, "ADDRESSPOS": "130005", "ADDRESS": "5 Dover Crescent, #01-22, Singapore 130005", "DESCRIPTIO": "Voluntary Welfare Organisations", "NAME": "AWARE Support Services", "HYPERLINK": "http:\/\/www.aware.org.sg", "X_ADDR": 22359.6259, "Y_ADDR": 31821.9182 }, "geometry": { "type": "Point", "coordinates": [ 103.782637204549559, 1.304060127355856 ] } },
{ "type": "Feature", "properties": { "OBJECTID": 216, "ADDRESSPOS": "130005", "ADDRESS": "5 Dover Crescent, #01-22, Singapore 130005", "DESCRIPTIO": "Voluntary Welfare Organisations", "NAME": "Aware Training Institute", "HYPERLINK": "http:\/\/www.aware.org.sg", "X_ADDR": 22359.6259, "Y_ADDR": 31821.9182 }, "geometry": { "type": "Point", "coordinates": [ 103.782637204549559, 1.304060127355856 ] } },
{ "type": "Feature", "properties": { "OBJECTID": 217, "ADDRESSPOS": "397693", "ADDRESS": "5 Stadium Walk, #04-3-Aug, Singapore 397693", "DESCRIPTIO": "Voluntary Welfare Organisations", "NAME": "Awareness and Education", "HYPERLINK": "http:\/\/www.bcf.org.sg", "X_ADDR": 32767.0464, "Y_ADDR": 31618.6271 }, "geometry": { "type": "Point", "coordinates": [ 103.876152670397303, 1.302221781096561 ] } },
{ "type": "Feature", "properties": { "OBJECTID": 218, "ADDRESSPOS": "547532", "ADDRESS": "11 Lorong Napiri, Singapore 547532", "DESCRIPTIO": "Voluntary Welfare Organisations", "NAME": "AWWA Centre for Caregivers", "HYPERLINK": null, "X_ADDR": 33055.0976, "Y_ADDR": 39445.7156 }, "geometry": { "type": "Point", "coordinates": [ 103.878742242734177, 1.373007125047553 ] } },
{ "type": "Feature", "properties": { "OBJECTID": 219, "ADDRESSPOS": "547532", "ADDRESS": "11 Lorong Napiri, Singapore 547532", "DESCRIPTIO": "Voluntary Welfare Organisations", "NAME": "AWWA Centre for Caregivers", "HYPERLINK": null, "X_ADDR": 33055.0976, "Y_ADDR": 39445.7156 }, "geometry": { "type": "Point", "coordinates": [ 103.878742242734177, 1.373007125047553 ] } },
{ "type": "Feature", "properties": { "OBJECTID": 220, "ADDRESSPOS": "560123", "ADDRESS": "123 Ang Mo Kio Ave 6, #02-4035, Singapore 560123", "DESCRIPTIO": "Voluntary Welfare Organisations", "NAME": "AWWA Community Home For Senior Citizens", "HYPERLINK": "http:\/\/www.awwa.org.sg", "X_ADDR": 29261.3066, "Y_ADDR": 39169.6082 }, "geometry": { "type": "Point", "coordinates": [ 103.844652310114242, 1.370510515393643 ] } },
{ "type": "Feature", "properties": { "OBJECTID": 221, "ADDRESSPOS": "237978", "ADDRESS": "2 Orchard Link, #04-1, Singapore 237978", "DESCRIPTIO": "Voluntary Welfare Organisations", "NAME": "*scape Co. Ltd", "HYPERLINK": "http:\/\/www.scape.com.sg", "X_ADDR": 28265.1244, "Y_ADDR": 31468.6096 }, "geometry": { "type": "Point", "coordinates": [ 103.835700843004375, 1.300865441410541 ] } },
{ "type": "Feature", "properties": { "OBJECTID": 222, "ADDRESSPOS": "387908", "ADDRESS": "Arab Association of Singapore, Singapore 387908", "DESCRIPTIO": "Voluntary Welfare Organisations", "NAME": "?Vocational Rehabilitation for Beneficiaries", "HYPERLINK": null, "X_ADDR": 34246.6714, "Y_ADDR": 33141.0162 }, "geometry": { "type": "Point", "coordinates": [ 103.889448079745932, 1.315989462079885 ] } },
{ "type": "Feature", "properties": { "OBJECTID": 223, "ADDRESSPOS": "90027", "ADDRESS": "27 Telok Blangah Way, #01-1018, Singapore 90027", "DESCRIPTIO": "Voluntary Welfare Organisations", "NAME": "@27 Family Service Centre", "HYPERLINK": null, "X_ADDR": 26681.8011, "Y_ADDR": 28549.7931 }, "geometry": { "type": "Point", "coordinates": [ 103.821474087674318, 1.274468663398095 ] } },
{ "type": "Feature", "properties": { "OBJECTID": 224, "ADDRESSPOS": "546636", "ADDRESS": "105 Punggol Road, Singapore 546636", "DESCRIPTIO": "Voluntary Welfare Organisations", "NAME": "Buddhist Cultural Centre", "HYPERLINK": "http:\/\/www.sbws.org.sg", "X_ADDR": 34995.4551, "Y_ADDR": 40220.3753 }, "geometry": { "type": "Point", "coordinates": [ 103.896177919553949, 1.3800124697788 ] } },
{ "type": "Feature", "properties": { "OBJECTID": 225, "ADDRESSPOS": "418152", "ADDRESS": "28 Jalan Senyum, Singapore 418152", "DESCRIPTIO": "Voluntary Welfare Organisations", "NAME": "Buddhist Union The", "HYPERLINK": null, "X_ADDR": 37056.0712, "Y_ADDR": 33778.7952 }, "geometry": { "type": "Point", "coordinates": [ 103.914692130137468, 1.321756605027473 ] } },
{ "type": "Feature", "properties": { "OBJECTID": 226, "ADDRESSPOS": "530463", "ADDRESS": "463 Hougang Ave 10, #01-964, Singapore 530463", "DESCRIPTIO": "Voluntary Welfare Organisations", "NAME": "Buddy'IN", "HYPERLINK": "http:\/\/www.students.org.sg", "X_ADDR": 34860.8372, "Y_ADDR": 39373.8068 }, "geometry": { "type": "Point", "coordinates": [ 103.894968082064196, 1.372356442411755 ] } },
{ "type": "Feature", "properties": { "OBJECTID": 227, "ADDRESSPOS": "730830", "ADDRESS": "830 Woodlands Street 83, #01-33, Singapore 730830", "DESCRIPTIO": "Voluntary Welfare Organisations", "NAME": "Building a Healthy Marriage", "HYPERLINK": "http:\/\/www.wsc.org.sg", "X_ADDR": 23266.4316, "Y_ADDR": 46774.383 }, "geometry": { "type": "Point", "coordinates": [ 103.790782884684447, 1.439284990678001 ] } },
{ "type": "Feature", "properties": { "OBJECTID": 228, "ADDRESSPOS": "168955", "ADDRESS": "2 Peng Nguan Street, Singapore 168955", "DESCRIPTIO": "Voluntary Welfare Organisations", "NAME": "Building Bridges EIPIC Centre (Jurong)", "HYPERLINK": "http:\/\/www.spd.org.sg", "X_ADDR": 27751.6902, "Y_ADDR": 29383.2416 }, "geometry": { "type": "Point", "coordinates": [ 103.8310874205864, 1.28200610605842 ] } },
{ "type": "Feature", "properties": { "OBJECTID": 229, "ADDRESSPOS": "168955", "ADDRESS": "2 Peng Nguan Street, Singapore 168955", "DESCRIPTIO": "Voluntary Welfare Organisations", "NAME": "Building Bridges EIPIC Centre (Tiong Bahru)", "HYPERLINK": "http:\/\/www.spd.org.sg", "X_ADDR": 27751.6902, "Y_ADDR": 29383.2416 }, "geometry": { "type": "Point", "coordinates": [ 103.8310874205864, 1.28200610605842 ] } },
{ "type": "Feature", "properties": { "OBJECTID": 230, "ADDRESSPOS": "599449", "ADDRESS": "10 De Souza Ave, Singapore 599449", "DESCRIPTIO": "Voluntary Welfare Organisations", "NAME": "Bukit Batok Boys Hostel - Outdoor Breakthrough", "HYPERLINK": null, "X_ADDR": 20901.2726, "Y_ADDR": 36389.1563 }, "geometry": { "type": "Point", "coordinates": [ 103.76953217376392, 1.345364286392745 ] } },
{ "type": "Feature", "properties": { "OBJECTID": 231, "ADDRESSPOS": "650247", "ADDRESS": "247 Bukit Batok East Ave 5, #01-86, Singapore 650247", "DESCRIPTIO": "Voluntary Welfare Organisations", "NAME": "Bukit Batok East Child Care Centre", "HYPERLINK": "http:\/\/www.salvationarmy.org.sg", "X_ADDR": 19504.2609, "Y_ADDR": 36894.0004 }, "geometry": { "type": "Point", "coordinates": [ 103.756979034151499, 1.349929550995164 ] } },
{ "type": "Feature", "properties": { "OBJECTID": 232, "ADDRESSPOS": "659205", "ADDRESS": "11 Bukit Batok West Ave 2, Singapore 659205", "DESCRIPTIO": "Voluntary Welfare Organisations", "NAME": "Bukit Batok Home For The Aged", "HYPERLINK": "http:\/\/www.saiss.org.sg", "X_ADDR": 18032.5109, "Y_ADDR": 38248.7562 }, "geometry": { "type": "Point", "coordinates": [ 103.743753996729779, 1.362181010003769 ] } },
{ "type": "Feature", "properties": { "OBJECTID": 233, "ADDRESSPOS": "670402", "ADDRESS": "402 Fajar Road, #01-217, Singapore 670402", "DESCRIPTIO": "Voluntary Welfare Organisations", "NAME": "Bukit Panjang Child Care Centre", "HYPERLINK": "http:\/\/www.salvationarmy.org.sg", "X_ADDR": 20739.0536, "Y_ADDR": 40253.5314 }, "geometry": { "type": "Point", "coordinates": [ 103.768073595937025, 1.380312255137209 ] } },
{ "type": "Feature", "properties": { "OBJECTID": 234, "ADDRESSPOS": "328836", "ADDRESS": "81 Kim Keat Road, Singapore 328836", "DESCRIPTIO": "Voluntary Welfare Organisations", "NAME": "Bukit Timah Seu Teck Sean Tong - NKF Diabetes And Hypertension Control Centre", "HYPERLINK": "http:\/\/www.nkfs.org", "X_ADDR": 30342.7302, "Y_ADDR": 34292.7662 }, "geometry": { "type": "Point", "coordinates": [ 103.854369284897061, 1.326406027134421 ] } },
{ "type": "Feature", "properties": { "OBJECTID": 235, "ADDRESSPOS": "400012", "ADDRESS": "12 Eunos Crescent, #01-2767, Singapore 400012", "DESCRIPTIO": "Voluntary Welfare Organisations", "NAME": "Bursary", "HYPERLINK": "http:\/\/www.chenghongwelfare.org", "X_ADDR": 35883.0118, "Y_ADDR": 33829.7453 }, "geometry": { "type": "Point", "coordinates": [ 103.904151594842233, 1.322217703434242 ] } },
{ "type": "Feature", "properties": { "OBJECTID": 236, "ADDRESSPOS": "560403", "ADDRESS": "403 Ang Mo Kio Avenue 10, #01-637, Singapore 560403", "DESCRIPTIO": "Voluntary Welfare Organisations", "NAME": "Bursary & Scholarship", "HYPERLINK": "http:\/\/www.lotuslight.org.sg\/", "X_ADDR": 30373.0877, "Y_ADDR": 38147.7368 }, "geometry": { "type": "Point", "coordinates": [ 103.854642366569891, 1.361269008160928 ] } },
{ "type": "Feature", "properties": { "OBJECTID": 237, "ADDRESSPOS": "160026", "ADDRESS": "26 Jalan Klinik, #01-42\/52, Singapore 160026", "DESCRIPTIO": "Voluntary Welfare Organisations", "NAME": "Beyond Social Services - Enhanced STEP-UP (Service A)", "HYPERLINK": "http:\/\/www.beyond.org.sg", "X_ADDR": 27458.6166, "Y_ADDR": 30064.9631 }, "geometry": { "type": "Point", "coordinates": [ 103.828454028288363, 1.288171352374315 ] } },
{ "type": "Feature", "properties": { "OBJECTID": 238, "ADDRESSPOS": "160026", "ADDRESS": "26 Jalan Klinik, #01-42\/52, Singapore 160026", "DESCRIPTIO": "Voluntary Welfare Organisations", "NAME": "Beyond Social Services - Enhanced STEP-UP (Service B)", "HYPERLINK": "http:\/\/www.beyond.org.sg", "X_ADDR": 27458.6166, "Y_ADDR": 30064.9631 }, "geometry": { "type": "Point", "coordinates": [ 103.828454028288363, 1.288171352374315 ] } },
{ "type": "Feature", "properties": { "OBJECTID": 239, "ADDRESSPOS": "160026", "ADDRESS": "26 Jalan Klinik, #01-42\/52, Singapore 160026", "DESCRIPTIO": "Voluntary Welfare Organisations", "NAME": "Beyond Social Services - REACH network", "HYPERLINK": "http:\/\/www.beyond.org.sg", "X_ADDR": 27458.6166, "Y_ADDR": 30064.9631 }, "geometry": { "type": "Point", "coordinates": [ 103.828454028288363, 1.288171352374315 ] } },
{ "type": "Feature", "properties": { "OBJECTID": 240, "ADDRESSPOS": "160026", "ADDRESS": "26 Jalan Klinik, #01-42\/52, Singapore 160026", "DESCRIPTIO": "Voluntary Welfare Organisations", "NAME": "Beyond Social Services - The Hangout", "HYPERLINK": "http:\/\/www.beyond.org.sg", "X_ADDR": 27458.6166, "Y_ADDR": 30064.9631 }, "geometry": { "type": "Point", "coordinates": [ 103.828454028288363, 1.288171352374315 ] } },
{ "type": "Feature", "properties": { "OBJECTID": 241, "ADDRESSPOS": "556055", "ADDRESS": "156 Serangoon Garden Way, Singapore 556055", "DESCRIPTIO": "Voluntary Welfare Organisations", "NAME": "Bible-Presbyterian Welfare Services Singapore", "HYPERLINK": null, "X_ADDR": 31139.6545, "Y_ADDR": 38825.4329 }, "geometry": { "type": "Point", "coordinates": [ 103.861530554078684, 1.367397777144366 ] } },
{ "type": "Feature", "properties": { "OBJECTID": 242, "ADDRESSPOS": "199582", "ADDRESS": "420 Beach Road, Singapore 199582", "DESCRIPTIO": "Voluntary Welfare Organisations", "NAME": "Biennial Singapore-Malaysia First Aid & Home Nursing Competition", "HYPERLINK": "http:\/\/www.sjab.org.sg", "X_ADDR": 31314.9173, "Y_ADDR": 31562.5626 }, "geometry": { "type": "Point", "coordinates": [ 103.863104622978184, 1.301714943533821 ] } },
{ "type": "Feature", "properties": { "OBJECTID": 243, "ADDRESSPOS": "560570", "ADDRESS": "570 Ang Mo Kio Aveue 3, #01-3317, Singapore 560570", "DESCRIPTIO": "Voluntary Welfare Organisations", "NAME": "Big Brother Big Sister (BBBS)", "HYPERLINK": "http:\/\/www.helpfsc.org.sg", "X_ADDR": 30526.7434, "Y_ADDR": 39084.8138 }, "geometry": { "type": "Point", "coordinates": [ 103.856023145625826, 1.369743584854717 ] } },
{ "type": "Feature", "properties": { "OBJECTID": 244, "ADDRESSPOS": "179030", "ADDRESS": "177 River Valley Road, #05-20, Singapore 179030", "DESCRIPTIO": "Voluntary Welfare Organisations", "NAME": "Binjaitree Limited", "HYPERLINK": "http:\/\/www.binjaitree.org", "X_ADDR": 29254.0003, "Y_ADDR": 30434.6651 }, "geometry": { "type": "Point", "coordinates": [ 103.844586298874475, 1.291514786134579 ] } },
{ "type": "Feature", "properties": { "OBJECTID": 245, "ADDRESSPOS": "368357", "ADDRESS": "130 Joo Seng Road, #03-1, Singapore 368357", "DESCRIPTIO": "Voluntary Welfare Organisations", "NAME": "Birthdays From The Heart", "HYPERLINK": "http:\/\/www.foodheart.org", "X_ADDR": 33519.7405, "Y_ADDR": 35515.7808 },